{
"type": "FeatureCollection",
"crs": { "type": "name", "properties": { "name": "urn:ogc:def:crs:OGC:1.3:CRS84" } },
"features": [
{ "type": "Feature", "properties": { "id": "ChIJwfn5hsk0tUYR24ZKkEG5MGY", "lat": 55.80232, "lon": 37.804798, "name": "Сопутствующие Товары", "newtype": "Retail", "type": "store" }, "geometry": { "type": "Point", "coordinates": [ 37.804798, 55.80232 ] } },
{ "type": "Feature", "properties": { "id": "ChIJCW-RgMk0tUYRZe8S3DHJcSc", "lat": 55.8020423, "lon": 37.8048273, "name": "Detskoye Pitaniye", "newtype": "Retail", "type": "clothing_store" }, "geometry": { "type": "Point", "coordinates": [ 37.8048273, 55.802042299999989 ] } },
{ "type": "Feature", "properties": { "id": "ChIJpeuXgMk0tUYRG0IwXle0ST0", "lat": 55.802053, "lon": 37.804743, "name": "Magazin detskogo pitaniya", "newtype": "Outdoor spaces", "type": "point_of_interest" }, "geometry": { "type": "Point", "coordinates": [ 37.804743, 55.802053 ] } },
{ "type": "Feature", "properties": { "id": "ChIJlRhZQCw1tUYRgH--nYrZfpg", "lat": 55.7835125, "lon": 37.773935, "name": "Izmaylovo District", "newtype": "Outdoor spaces", "type": "sublocality_level_2" }, "geometry": { "type": "Point", "coordinates": [ 37.773935, 55.783512499999986 ] } },
{ "type": "Feature", "properties": { "id": "ChIJ-weVkss0tUYRXr7IUtX9HEU", "lat": 55.800255, "lon": 37.804834, "name": "Parikmakherskaya", "newtype": "Health & beauty", "type": "beauty_salon" }, "geometry": { "type": "Point", "coordinates": [ 37.804834, 55.800255 ] } },
{ "type": "Feature", "properties": { "id": "ChIJJ9r5wMs0tUYRDuxj658sBro", "lat": 55.800311, "lon": 37.804884, "name": "Molodost' i krasota", "newtype": "Health & beauty", "type": "health" }, "geometry": { "type": "Point", "coordinates": [ 37.804884, 55.800311 ] } },
{ "type": "Feature", "properties": { "id": "ChIJpYtUC8k0tUYR6h8adt8OCFE", "lat": 55.8024079, "lon": 37.802158, "name": "Poliklinika n86", "newtype": "Health & beauty", "type": "health" }, "geometry": { "type": "Point", "coordinates": [ 37.802158, 55.8024079 ] } },
{ "type": "Feature", "properties": { "id": "ChIJGQdQm8k0tUYR2DG2zR0hlSo", "lat": 55.8025218, "lon": 37.8042583, "name": "Doping", "newtype": "Food services", "type": "bar" }, "geometry": { "type": "Point", "coordinates": [ 37.8042583, 55.8025218 ] } },
{ "type": "Feature", "properties": { "id": "ChIJpYtUC8k0tUYRafe3EKqhUgM", "lat": 55.802456, "lon": 37.8021748, "name": "Vostochnyy Adm. Okrug, Pri Poliklinike № 86", "newtype": "Health & beauty", "type": "health" }, "geometry": { "type": "Point", "coordinates": [ 37.8021748, 55.802456 ] } },
{ "type": "Feature", "properties": { "id": "ChIJGQdQm8k0tUYRC0OSV3d7gfQ", "lat": 55.802541, "lon": 37.803927, "name": "Staryy Lekar', Apteka", "newtype": "Retail", "type": "pharmacy" }, "geometry": { "type": "Point", "coordinates": [ 37.803927, 55.802541 ] } },
{ "type": "Feature", "properties": { "id": "ChIJGQdQm8k0tUYRvkzzQEIPhuM", "lat": 55.8026028, "lon": 37.8038469, "name": "Oster", "newtype": "Food services", "type": "food" }, "geometry": { "type": "Point", "coordinates": [ 37.803846900000011, 55.802602799999974 ] } },
{ "type": "Feature", "properties": { "id": "ChIJGQdQm8k0tUYRe87wb1laLz8", "lat": 55.802525, "lon": 37.803772, "name": "RODNIK-95, Magazin, OOO", "newtype": "Retail", "type": "grocery_or_supermarket" }, "geometry": { "type": "Point", "coordinates": [ 37.803772, 55.802525 ] } },
{ "type": "Feature", "properties": { "id": "ChIJiX60eMk0tUYRNtCSSvtEPss", "lat": 55.801977, "lon": 37.803868, "name": "Международная Многопрофильная клиника \"Медлюкс\"", "newtype": "Health & beauty", "type": "hospital" }, "geometry": { "type": "Point", "coordinates": [ 37.803868, 55.801977 ] } },
{ "type": "Feature", "properties": { "id": "ChIJKz-tdMk0tUYR4p2e_w3nwZU", "lat": 55.8027398, "lon": 37.8018555, "name": "Shkola 442", "newtype": "Education", "type": "school" }, "geometry": { "type": "Point", "coordinates": [ 37.8018555, 55.802739799999983 ] } },
{ "type": "Feature", "properties": { "id": "ChIJy5vAnsk0tUYR8Tm7zANEagg", "lat": 55.8026385, "lon": 37.8031821, "name": "11-я Парковая улица", "newtype": "Transportation & logistics", "type": "bus_station" }, "geometry": { "type": "Point", "coordinates": [ 37.8031821, 55.8026385 ] } },
{ "type": "Feature", "properties": { "id": "ChIJfQNRm8k0tUYR2B4s-22MZHU", "lat": 55.8025, "lon": 37.8039, "name": "Vdokhnoveniye", "newtype": "Food services", "type": "restaurant" }, "geometry": { "type": "Point", "coordinates": [ 37.8039, 55.8025 ] } },
{ "type": "Feature", "properties": { "id": "ChIJf363hMk0tUYRFk5pZ7sy-Wk", "lat": 55.8024934, "lon": 37.8040625, "name": "ГОРЗДРАВ", "newtype": "Retail", "type": "pharmacy" }, "geometry": { "type": "Point", "coordinates": [ 37.8040625, 55.802493399999982 ] } },
{ "type": "Feature", "properties": { "id": "ChIJ7ZV_oMk0tUYRdAY_z_HNZDk", "lat": 55.8027418, "lon": 37.8022279, "name": "Оао Агенство Печати Басманное, Киоск Печать №11", "newtype": "Retail", "type": "store" }, "geometry": { "type": "Point", "coordinates": [ 37.8022279, 55.802741799999986 ] } },
{ "type": "Feature", "properties": { "id": "ChIJpYtUC8k0tUYRsagDhv5tUoY", "lat": 55.8023365, "lon": 37.802049, "name": "Dent-studiya Stomatologicheskaya Klinika", "newtype": "Health & beauty", "type": "dentist" }, "geometry": { "type": "Point", "coordinates": [ 37.802049, 55.802336499999988 ] } },
{ "type": "Feature", "properties": { "id": "ChIJtWDbGsk0tUYRVvprB1MTfvo", "lat": 55.8025439, "lon": 37.8003115, "name": "Vist", "newtype": "Retail", "type": "store" }, "geometry": { "type": "Point", "coordinates": [ 37.8003115, 55.8025439 ] } },
{ "type": "Feature", "properties": { "id": "ChIJD2rYGsk0tUYRSxP2qSdAROE", "lat": 55.8025434, "lon": 37.8002833, "name": "Magazin tsvetov na Sirenevom bulvare", "newtype": "Professional services", "type": "florist" }, "geometry": { "type": "Point", "coordinates": [ 37.800283300000011, 55.802543399999976 ] } },
{ "type": "Feature", "properties": { "id": "ChIJtWDbGsk0tUYRMuiha39134A", "lat": 55.802543, "lon": 37.800264, "name": "Nereida, Magazin, OOO", "newtype": "Retail", "type": "grocery_or_supermarket" }, "geometry": { "type": "Point", "coordinates": [ 37.800264, 55.802543 ] } },
{ "type": "Feature", "properties": { "id": "ChIJbfgHE8k0tUYRDOhsedZFnoI", "lat": 55.801949, "lon": 37.800336, "name": "Kladez' Shkola", "newtype": "Education", "type": "school" }, "geometry": { "type": "Point", "coordinates": [ 37.800336, 55.801949 ] } },
{ "type": "Feature", "properties": { "id": "ChIJ88vjFck0tUYRoi1_7kGO4s4", "lat": 55.801912, "lon": 37.800352, "name": "Kladez' NOU", "newtype": "Education", "type": "school" }, "geometry": { "type": "Point", "coordinates": [ 37.800352, 55.801912 ] } },
{ "type": "Feature", "properties": { "id": "ChIJDRR5HMk0tUYR5Lu9qDCgF68", "lat": 55.802474, "lon": 37.799824, "name": "Твой Каприз", "newtype": "Retail", "type": "clothing_store" }, "geometry": { "type": "Point", "coordinates": [ 37.799824, 55.802474 ] } },
{ "type": "Feature", "properties": { "id": "ChIJ3VRxG8k0tUYRxseXt2U_O00", "lat": 55.802469, "lon": 37.800002, "name": "Ооо Вист, Колбасы", "newtype": "Retail", "type": "grocery_or_supermarket" }, "geometry": { "type": "Point", "coordinates": [ 37.800002, 55.802469 ] } },
{ "type": "Feature", "properties": { "id": "ChIJKw2CG8k0tUYRudmT6CpZruk", "lat": 55.802471, "lon": 37.799918, "name": "Цветы", "newtype": "Professional services", "type": "florist" }, "geometry": { "type": "Point", "coordinates": [ 37.799918, 55.802471 ] } },
{ "type": "Feature", "properties": { "id": "ChIJ3SizHck0tUYR02FfyFjziz0", "lat": 55.8025264, "lon": 37.7994303, "name": "Kinoteatr \"Sofiya\"", "newtype": "Transportation & logistics", "type": "bus_station" }, "geometry": { "type": "Point", "coordinates": [ 37.7994303, 55.8025264 ] } },
{ "type": "Feature", "properties": { "id": "ChIJyY7z18s0tUYRSIc6l-le7fo", "lat": 55.80131, "lon": 37.803785, "name": "Umnitsa, tsentr rannego razvitiya detey", "newtype": "Education", "type": "school" }, "geometry": { "type": "Point", "coordinates": [ 37.803785, 55.80131 ] } },
{ "type": "Feature", "properties": { "id": "ChIJjyt838s0tUYRavv7NOL7TnE", "lat": 55.8009465, "lon": 37.803157, "name": "Salon-parikmakherskaya, IP Chmykhov V. I.", "newtype": "Health & beauty", "type": "health" }, "geometry": { "type": "Point", "coordinates": [ 37.803157, 55.8009465 ] } },
{ "type": "Feature", "properties": { "id": "ChIJA__OWMk0tUYRmLssxjvbIcc", "lat": 55.800627, "lon": 37.802385, "name": "Государственное Бюджетное Образовательное Учреждение Города Москвы Детский Сад №240", "newtype": "Education", "type": "school" }, "geometry": { "type": "Point", "coordinates": [ 37.802385, 55.800627 ] } },
{ "type": "Feature", "properties": { "id": "ChIJSzmtdMk0tUYRv378zI849X0", "lat": 55.801443, "lon": 37.802028, "name": "№ 442 VIII Vida Spetsialnaya Korrektsionnaya", "newtype": "Education", "type": "school" }, "geometry": { "type": "Point", "coordinates": [ 37.802028, 55.801443 ] } },
{ "type": "Feature", "properties": { "id": "ChIJQWTGaMk0tUYRj_nDJGeDmHI", "lat": 55.80146, "lon": 37.801992, "name": "Shkola №442", "newtype": "Education", "type": "school" }, "geometry": { "type": "Point", "coordinates": [ 37.801992, 55.80146 ] } },
{ "type": "Feature", "properties": { "id": "ChIJyY7z18s0tUYRKXF5-COANeE", "lat": 55.80131, "lon": 37.803785, "name": "FarmaTsentr, apteka", "newtype": "Retail", "type": "pharmacy" }, "geometry": { "type": "Point", "coordinates": [ 37.803785, 55.80131 ] } },
{ "type": "Feature", "properties": { "id": "ChIJN5_77QS1SkER9-JP1pBRK94", "lat": 55.80131, "lon": 37.803785, "name": "OPYT-2 (№49 MGSA)", "newtype": "Transportation & logistics", "type": "parking" }, "geometry": { "type": "Point", "coordinates": [ 37.803785, 55.80131 ] } },
{ "type": "Feature", "properties": { "id": "ChIJX-9fwRG1SkERhQ10sFR1SBc", "lat": 55.80131, "lon": 37.803785, "name": "AVTO-51 avtostoyanka", "newtype": "Transportation & logistics", "type": "parking" }, "geometry": { "type": "Point", "coordinates": [ 37.803785, 55.80131 ] } },
{ "type": "Feature", "properties": { "id": "ChIJX-9fwRG1SkERQ48w-547bQg", "lat": 55.80131, "lon": 37.803785, "name": "Sofiya APK Avtostoyanka", "newtype": "Transportation & logistics", "type": "parking" }, "geometry": { "type": "Point", "coordinates": [ 37.803785, 55.80131 ] } },
{ "type": "Feature", "properties": { "id": "ChIJyY7z18s0tUYR60HJ8c4pk7Y", "lat": 55.8012897, "lon": 37.8038669, "name": "Pariket, ZAO, torgovaya kompaniya", "newtype": "Retail", "type": "store" }, "geometry": { "type": "Point", "coordinates": [ 37.803866899999989, 55.8012897 ] } },
{ "type": "Feature", "properties": { "id": "ChIJyY7z18s0tUYRj8YmrA-DNGU", "lat": 55.8012897, "lon": 37.8038669, "name": "Tsenturion-97, tsentr bytovogo obsluzhivaniya", "newtype": "Everyday services", "type": "laundry" }, "geometry": { "type": "Point", "coordinates": [ 37.803866899999989, 55.8012897 ] } },
{ "type": "Feature", "properties": { "id": "ChIJV_P818s0tUYRmuArfy0oDK4", "lat": 55.8013281, "lon": 37.8038634, "name": "YuNITEK, torgovaya firma", "newtype": "Retail", "type": "pet_store" }, "geometry": { "type": "Point", "coordinates": [ 37.8038634, 55.801328099999985 ] } },
{ "type": "Feature", "properties": { "id": "ChIJ_wWUOck0tUYRnpe5zzu00BA", "lat": 55.801379, "lon": 37.799515, "name": "SALON-52, magazin", "newtype": "Retail", "type": "store" }, "geometry": { "type": "Point", "coordinates": [ 37.799515, 55.801379 ] } },
{ "type": "Feature", "properties": { "id": "ChIJ69jsOck0tUYRk-wiGxKJZTo", "lat": 55.8012605, "lon": 37.7995122, "name": "Medprofi, OOO", "newtype": "Health & beauty", "type": "health" }, "geometry": { "type": "Point", "coordinates": [ 37.799512199999988, 55.8012605 ] } },
{ "type": "Feature", "properties": { "id": "ChIJ69jsOck0tUYR8KwAyqyaLiU", "lat": 55.8012605, "lon": 37.7995122, "name": "Kampa-nova, OOO", "newtype": "Retail", "type": "store" }, "geometry": { "type": "Point", "coordinates": [ 37.799512199999988, 55.8012605 ] } },
{ "type": "Feature", "properties": { "id": "ChIJ8eukN8k0tUYR0yd1-bZxV-g", "lat": 55.801034, "lon": 37.799578, "name": "First & Sekond Сеть Магазинов Секонд Хэнд И Евро Сток", "newtype": "Retail", "type": "clothing_store" }, "geometry": { "type": "Point", "coordinates": [ 37.799578, 55.801034 ] } },
{ "type": "Feature", "properties": { "id": "ChIJwWQfNMk0tUYRA0pRnuvR3kM", "lat": 55.8013119, "lon": 37.8005353, "name": "Версаль", "newtype": "Outdoor spaces", "type": "point_of_interest" }, "geometry": { "type": "Point", "coordinates": [ 37.800535299999979, 55.801311899999973 ] } },
{ "type": "Feature", "properties": { "id": "ChIJ_wWUOck0tUYRtrusfGbHNuE", "lat": 55.8012635, "lon": 37.8004964, "name": "Gms-bezopasnost', Chastnoye Okhrannoye Predpriyatiye, OOO", "newtype": "Outdoor spaces", "type": "point_of_interest" }, "geometry": { "type": "Point", "coordinates": [ 37.8004964, 55.8012635 ] } },
{ "type": "Feature", "properties": { "id": "ChIJpbnPQMk0tUYRQzRaeemk8Ns", "lat": 55.8012635, "lon": 37.8004964, "name": "Akva Khaus Set' Elitnykh Saun", "newtype": "Outdoor spaces", "type": "point_of_interest" }, "geometry": { "type": "Point", "coordinates": [ 37.8004964, 55.8012635 ] } },
{ "type": "Feature", "properties": { "id": "ChIJ69jsOck0tUYRFQyejuWChvQ", "lat": 55.8012615, "lon": 37.7995925, "name": "Rus'", "newtype": "Outdoor spaces", "type": "point_of_interest" }, "geometry": { "type": "Point", "coordinates": [ 37.7995925, 55.8012615 ] } },
{ "type": "Feature", "properties": { "id": "ChIJ69jsOck0tUYRoXpIUoKSg8w", "lat": 55.8012615, "lon": 37.7995925, "name": "Novikov B.d. IP", "newtype": "Finance & banking", "type": "finance" }, "geometry": { "type": "Point", "coordinates": [ 37.7995925, 55.8012615 ] } },
{ "type": "Feature", "properties": { "id": "ChIJ69jsOck0tUYRMavhH_JBMrg", "lat": 55.8012615, "lon": 37.7995925, "name": "Aliko", "newtype": "Retail", "type": "furniture_store" }, "geometry": { "type": "Point", "coordinates": [ 37.7995925, 55.8012615 ] } },
{ "type": "Feature", "properties": { "id": "ChIJeUjRO8k0tUYR0giKwID3GqA", "lat": 55.801387, "lon": 37.799501, "name": "Lad-Den", "newtype": "Retail", "type": "home_goods_store" }, "geometry": { "type": "Point", "coordinates": [ 37.799501, 55.801387 ] } },
{ "type": "Feature", "properties": { "id": "ChIJ8-STOck0tUYREvwmaNNLq-U", "lat": 55.801273, "lon": 37.7995111, "name": "Egida, produktovyy magazin", "newtype": "Retail", "type": "grocery_or_supermarket" }, "geometry": { "type": "Point", "coordinates": [ 37.7995111, 55.801273 ] } },
{ "type": "Feature", "properties": { "id": "ChIJaVEDqc40tUYReNcBuOHZWE4", "lat": 55.8000863, "lon": 37.800105, "name": "Tsentrzhilstroy, Agentstvo Nedvizhimosti, ZAO", "newtype": "Professional services", "type": "real_estate_agency" }, "geometry": { "type": "Point", "coordinates": [ 37.800105, 55.8000863 ] } },
{ "type": "Feature", "properties": { "id": "ChIJaVEDqc40tUYRNRcUdiPzkdQ", "lat": 55.799963, "lon": 37.799758, "name": "Moskovskiy Investitsionno-torgovyy Tsentr Zhilya, OAO", "newtype": "Professional services", "type": "real_estate_agency" }, "geometry": { "type": "Point", "coordinates": [ 37.799758, 55.799963 ] } },
{ "type": "Feature", "properties": { "id": "ChIJy5QRrs40tUYRSq-pYrrPbTM", "lat": 55.799962, "lon": 37.799722, "name": "Kopi Rayt OOO", "newtype": "Retail", "type": "store" }, "geometry": { "type": "Point", "coordinates": [ 37.799722, 55.799962 ] } },
{ "type": "Feature", "properties": { "id": "ChIJ_Yzhrc40tUYR0yeNOaCUGYs", "lat": 55.799954, "lon": 37.799749, "name": "Vip-style-company", "newtype": "Retail", "type": "store" }, "geometry": { "type": "Point", "coordinates": [ 37.799749, 55.799954 ] } },
{ "type": "Feature", "properties": { "id": "ChIJcbYJss40tUYRJyUn7WFs014", "lat": 55.79996, "lon": 37.799721, "name": "Ооо Эка Адар", "newtype": "Outdoor spaces", "type": "point_of_interest" }, "geometry": { "type": "Point", "coordinates": [ 37.799721, 55.79996 ] } },
{ "type": "Feature", "properties": { "id": "ChIJ8-vBuc40tUYRuegt76obFpg", "lat": 55.8005519, "lon": 37.8005139, "name": "Modul'-ekstra", "newtype": "Outdoor spaces", "type": "point_of_interest" }, "geometry": { "type": "Point", "coordinates": [ 37.800513899999984, 55.800551899999988 ] } },
{ "type": "Feature", "properties": { "id": "ChIJaVEDqc40tUYRvq2tdIhZMLk", "lat": 55.8000863, "lon": 37.800105, "name": "MTsZh-TUR, turisticheskoye agentstvo, OOO", "newtype": "Professional services", "type": "travel_agency" }, "geometry": { "type": "Point", "coordinates": [ 37.800105, 55.8000863 ] } },
{ "type": "Feature", "properties": { "id": "ChIJ05_dsc40tUYR7DSBIbLqpUk", "lat": 55.7999611, "lon": 37.7997065, "name": "Дана", "newtype": "Finance & banking", "type": "finance" }, "geometry": { "type": "Point", "coordinates": [ 37.799706499999978, 55.7999611 ] } },
{ "type": "Feature", "properties": { "id": "ChIJ-2-6bc00tUYRKXQsiV4Mhsg", "lat": 55.802442, "lon": 37.797565, "name": "VOSTOChNOE-2 BTI", "newtype": "Outdoor spaces", "type": "point_of_interest" }, "geometry": { "type": "Point", "coordinates": [ 37.797565, 55.802442 ] } },
{ "type": "Feature", "properties": { "id": "ChIJ4WKj38g0tUYRDqotcZdnoIQ", "lat": 55.802445, "lon": 37.797092, "name": "Стоматологическая Клиника Эстет", "newtype": "Health & beauty", "type": "dentist" }, "geometry": { "type": "Point", "coordinates": [ 37.797092, 55.802445 ] } },
{ "type": "Feature", "properties": { "id": "ChIJtbjI38g0tUYRHEv04k95yhM", "lat": 55.802309, "lon": 37.798453, "name": "Master Optik", "newtype": "Retail", "type": "store" }, "geometry": { "type": "Point", "coordinates": [ 37.798453, 55.802309 ] } },
{ "type": "Feature", "properties": { "id": "ChIJHWKj38g0tUYRkFlpd5Dmrok", "lat": 55.802309, "lon": 37.798453, "name": "Farmatsevtik OOO", "newtype": "Retail", "type": "pharmacy" }, "geometry": { "type": "Point", "coordinates": [ 37.798453, 55.802309 ] } },
{ "type": "Feature", "properties": { "id": "ChIJwxKgxMg0tUYRNZ1V7WQQFl8", "lat": 55.802441, "lon": 37.797171, "name": "Компьютерный Клуб Авалон", "newtype": "Outdoor spaces", "type": "point_of_interest" }, "geometry": { "type": "Point", "coordinates": [ 37.797171, 55.802441 ] } },
{ "type": "Feature", "properties": { "id": "ChIJWWPS38g0tUYRsyKdD9RxEKI", "lat": 55.8023438, "lon": 37.7984498, "name": "СушиФиш", "newtype": "Food services", "type": "restaurant" }, "geometry": { "type": "Point", "coordinates": [ 37.7984498, 55.8023438 ] } },
{ "type": "Feature", "properties": { "id": "ChIJpymq2Mg0tUYRZNbWw33UzpM", "lat": 55.802023, "lon": 37.798272, "name": "Магазин Продукты", "newtype": "Retail", "type": "grocery_or_supermarket" }, "geometry": { "type": "Point", "coordinates": [ 37.798272, 55.802023 ] } },
{ "type": "Feature", "properties": { "id": "ChIJ_wuyIMk0tUYRpabNQY1ziIk", "lat": 55.8020608, "lon": 37.798396, "name": "Ооо Ремсервисс", "newtype": "Retail", "type": "hardware_store" }, "geometry": { "type": "Point", "coordinates": [ 37.798396, 55.8020608 ] } },
{ "type": "Feature", "properties": { "id": "ChIJC_GsIMk0tUYRk-YB-09pVE0", "lat": 55.802025, "lon": 37.798364, "name": "Ремонт Обуви Одежды", "newtype": "Outdoor spaces", "type": "point_of_interest" }, "geometry": { "type": "Point", "coordinates": [ 37.798364, 55.802025 ] } },
{ "type": "Feature", "properties": { "id": "ChIJ_wuyIMk0tUYRWqb9b4RH6ps", "lat": 55.802023, "lon": 37.798398, "name": "Ремсервис", "newtype": "Retail", "type": "hardware_store" }, "geometry": { "type": "Point", "coordinates": [ 37.798398, 55.802023 ] } },
{ "type": "Feature", "properties": { "id": "ChIJeV4_IMk0tUYRbrFGIjeAQDI", "lat": 55.802237, "lon": 37.798784, "name": "Kinoteatr \"Sofiya\"", "newtype": "Transportation & logistics", "type": "bus_station" }, "geometry": { "type": "Point", "coordinates": [ 37.798784, 55.802237 ] } },
{ "type": "Feature", "properties": { "id": "ChIJy6Uct8g0tUYRxq9F0E5GGow", "lat": 55.8025159, "lon": 37.7953429, "name": "7-я Парковая улица", "newtype": "Transportation & logistics", "type": "bus_station" }, "geometry": { "type": "Point", "coordinates": [ 37.7953429, 55.802515899999982 ] } },
{ "type": "Feature", "properties": { "id": "ChIJtarBs8g0tUYRx7zAEmwVgKU", "lat": 55.8024366, "lon": 37.794685, "name": "ГОРЗДРАВ", "newtype": "Retail", "type": "pharmacy" }, "geometry": { "type": "Point", "coordinates": [ 37.794685, 55.8024366 ] } },
{ "type": "Feature", "properties": { "id": "ChIJgxmjSs80tUYR4drPk3yH7yk", "lat": 55.80237, "lon": 37.7939701, "name": "36'6 Set' Aptek", "newtype": "Retail", "type": "pharmacy" }, "geometry": { "type": "Point", "coordinates": [ 37.7939701, 55.80237 ] } },
{ "type": "Feature", "properties": { "id": "ChIJ911Zzcg0tUYRLK9V1s3h__s", "lat": 55.801691, "lon": 37.796064, "name": "Prepodavatel' \/ repetitor angliyskogo yazyka", "newtype": "Outdoor spaces", "type": "point_of_interest" }, "geometry": { "type": "Point", "coordinates": [ 37.796064, 55.801691 ] } },
{ "type": "Feature", "properties": { "id": "ChIJ31qC4s40tUYRUE8BYUmkUJs", "lat": 55.802419, "lon": 37.794673, "name": "Detskiy Sad №461, S Yaselnymi Gruppami, GOU", "newtype": "Education", "type": "school" }, "geometry": { "type": "Point", "coordinates": [ 37.794673, 55.802419 ] } },
{ "type": "Feature", "properties": { "id": "ChIJAVtWssg0tUYRvOSPbA2Phlk", "lat": 55.802427, "lon": 37.794422, "name": "Ооо Агенство Недвижимости Контракт-Риэлт", "newtype": "Professional services", "type": "real_estate_agency" }, "geometry": { "type": "Point", "coordinates": [ 37.794422, 55.802427 ] } },
{ "type": "Feature", "properties": { "id": "ChIJeb72ssg0tUYRavCOTDds2U0", "lat": 55.802425, "lon": 37.794344, "name": "Нотариальная Контора", "newtype": "Finance & banking", "type": "finance" }, "geometry": { "type": "Point", "coordinates": [ 37.794344, 55.802425 ] } },
{ "type": "Feature", "properties": { "id": "ChIJ0YZjrcg0tUYRMDI2JnSFzm8", "lat": 55.802468, "lon": 37.794101, "name": "7-ya Parkovaya ulitsa", "newtype": "Transportation & logistics", "type": "bus_station" }, "geometry": { "type": "Point", "coordinates": [ 37.794101, 55.802468 ] } },
{ "type": "Feature", "properties": { "id": "ChIJnyh3JMk0tUYREZaPRWdLyJ8", "lat": 55.8017201, "lon": 37.7990582, "name": "9-ya Parkovaya ulitsa", "newtype": "Transportation & logistics", "type": "route" }, "geometry": { "type": "Point", "coordinates": [ 37.7990582, 55.801720099999983 ] } },
{ "type": "Feature", "properties": { "id": "EkM5LdGPINCf0LDRgNC60L7QstCw0Y8g0YPQuy4sIDUyLCDQnNC-0YHQutCy0LAsINCg0L7RgdGB0LjRjywgMTA1MjY0", "lat": 55.8013191, "lon": 37.7990733, "name": "9-ya Parkovaya ul., 52", "newtype": "Outdoor spaces", "type": "street_address" }, "geometry": { "type": "Point", "coordinates": [ 37.7990733, 55.801319099999979 ] } },
{ "type": "Feature", "properties": { "id": "ChIJB_WbLsk0tUYRbJD7buHV0nM", "lat": 55.801178, "lon": 37.798281, "name": "SUDAR', magazin odezhdy", "newtype": "Retail", "type": "clothing_store" }, "geometry": { "type": "Point", "coordinates": [ 37.798281, 55.801178 ] } },
{ "type": "Feature", "properties": { "id": "ChIJB_WbLsk0tUYRWldSOm6bi88", "lat": 55.8012594, "lon": 37.7983786, "name": "AGA-АВТОМАГ", "newtype": "Retail", "type": "store" }, "geometry": { "type": "Point", "coordinates": [ 37.7983786, 55.8012594 ] } },
{ "type": "Feature", "properties": { "id": "ChIJTVV5Lsk0tUYRYkq4r6cYmWg", "lat": 55.801254, "lon": 37.798282, "name": "Aga-avtomag", "newtype": "Retail", "type": "store" }, "geometry": { "type": "Point", "coordinates": [ 37.798282, 55.801254 ] } },
{ "type": "Feature", "properties": { "id": "ChIJB_WbLsk0tUYRgo4lnIPO6MA", "lat": 55.8012892, "lon": 37.7981504, "name": "Natsionalnyy Klub Golykh Sobak", "newtype": "Outdoor spaces", "type": "point_of_interest" }, "geometry": { "type": "Point", "coordinates": [ 37.7981504, 55.801289199999985 ] } },
{ "type": "Feature", "properties": { "id": "ChIJ42UgLMk0tUYRnrTKLefZ7UI", "lat": 55.8012892, "lon": 37.7981504, "name": "Master Spas", "newtype": "Retail", "type": "store" }, "geometry": { "type": "Point", "coordinates": [ 37.7981504, 55.801289199999985 ] } },
{ "type": "Feature", "properties": { "id": "ChIJxUU2OvdRtUYRw-rEgoVnt5I", "lat": 55.8012147, "lon": 37.7981508, "name": "Сударь", "newtype": "Retail", "type": "clothing_store" }, "geometry": { "type": "Point", "coordinates": [ 37.798150799999981, 55.801214699999981 ] } },
{ "type": "Feature", "properties": { "id": "ChIJTVV5Lsk0tUYRM8FkQBVLcts", "lat": 55.801254, "lon": 37.798282, "name": "EXIST, internet-magazin", "newtype": "Outdoor spaces", "type": "point_of_interest" }, "geometry": { "type": "Point", "coordinates": [ 37.798282, 55.801254 ] } },
{ "type": "Feature", "properties": { "id": "ChIJTVV5Lsk0tUYRtV36d8QesIg", "lat": 55.801254, "lon": 37.798282, "name": "MoneyGram (SBERBANK)", "newtype": "Finance & banking", "type": "finance" }, "geometry": { "type": "Point", "coordinates": [ 37.798282, 55.801254 ] } },
{ "type": "Feature", "properties": { "id": "ChIJ42UgLMk0tUYReLNeC_gF97Y", "lat": 55.8012892, "lon": 37.7981504, "name": "Bankomat Sberbanka Rossii, Sberbank Rossii, Otdeleniye № 5281", "newtype": "Finance & banking", "type": "atm" }, "geometry": { "type": "Point", "coordinates": [ 37.7981504, 55.801289199999985 ] } },
{ "type": "Feature", "properties": { "id": "ChIJoYm3M880tUYRRUPG8i9ZuUc", "lat": 55.8012892, "lon": 37.7981504, "name": "№ 1084 Detskiy Sad Obshcheobrazovatelnogo Razvitiya", "newtype": "Education", "type": "school" }, "geometry": { "type": "Point", "coordinates": [ 37.7981504, 55.801289199999985 ] } },
{ "type": "Feature", "properties": { "id": "EkM5LdGPINCf0LDRgNC60L7QstCw0Y8g0YPQuy4sIDUyLCDQnNC-0YHQutCy0LAsINCg0L7RgdGB0LjRjywgMTA1MjY0", "lat": 55.8009719, "lon": 37.7990903, "name": "9-ya Parkovaya ul., 52", "newtype": "Outdoor spaces", "type": "street_address" }, "geometry": { "type": "Point", "coordinates": [ 37.7990903, 55.8009719 ] } },
{ "type": "Feature", "properties": { "id": "EkM5LdGPINCf0LDRgNC60L7QstCw0Y8g0YPQuy4sIDUwLCDQnNC-0YHQutCy0LAsINCg0L7RgdGB0LjRjywgMTA1MjY0", "lat": 55.8004535, "lon": 37.7991095, "name": "9-ya Parkovaya ul., 50", "newtype": "Outdoor spaces", "type": "street_address" }, "geometry": { "type": "Point", "coordinates": [ 37.7991095, 55.80045350000001 ] } },
{ "type": "Feature", "properties": { "id": "ChIJj724y840tUYR3nbu5VN4K8E", "lat": 55.8004647, "lon": 37.7986378, "name": "A.D. Sport Distributsiya", "newtype": "Outdoor spaces", "type": "point_of_interest" }, "geometry": { "type": "Point", "coordinates": [ 37.7986378, 55.800464699999985 ] } },
{ "type": "Feature", "properties": { "id": "ChIJUQW6y840tUYRteg0FAD9yHE", "lat": 55.8004718, "lon": 37.7986375, "name": "Meteko-premagaz OOO", "newtype": "Outdoor spaces", "type": "point_of_interest" }, "geometry": { "type": "Point", "coordinates": [ 37.798637500000012, 55.8004718 ] } },
{ "type": "Feature", "properties": { "id": "ChIJUQW6y840tUYRHabhFv2onRA", "lat": 55.8004718, "lon": 37.7986375, "name": "Formula Soglasiya OOO", "newtype": "Finance & banking", "type": "finance" }, "geometry": { "type": "Point", "coordinates": [ 37.798637500000012, 55.8004718 ] } },
{ "type": "Feature", "properties": { "id": "ChIJUQW6y840tUYRWoijruEy2UM", "lat": 55.8004647, "lon": 37.7986378, "name": "Layt Servis", "newtype": "Everyday services", "type": "general_contractor" }, "geometry": { "type": "Point", "coordinates": [ 37.7986378, 55.800464699999985 ] } },
{ "type": "Feature", "properties": { "id": "ChIJUQW6y840tUYRaI-bLeVDH3I", "lat": 55.8004718, "lon": 37.7986375, "name": "Garant Lyuks OOO", "newtype": "Outdoor spaces", "type": "point_of_interest" }, "geometry": { "type": "Point", "coordinates": [ 37.798637500000012, 55.8004718 ] } },
{ "type": "Feature", "properties": { "id": "ChIJUQW6y840tUYREI0zoGR82Lg", "lat": 55.8004718, "lon": 37.7986375, "name": "Lapy Khvost", "newtype": "Retail", "type": "store" }, "geometry": { "type": "Point", "coordinates": [ 37.798637500000012, 55.8004718 ] } },
{ "type": "Feature", "properties": { "id": "ChIJj724y840tUYRTt_SEXb51Lw", "lat": 55.8004647, "lon": 37.7986378, "name": "Diafleks", "newtype": "Outdoor spaces", "type": "point_of_interest" }, "geometry": { "type": "Point", "coordinates": [ 37.7986378, 55.800464699999985 ] } },
{ "type": "Feature", "properties": { "id": "ChIJj724y840tUYR3bdXoVa8blw", "lat": 55.8004647, "lon": 37.7986378, "name": "Stalproyekt", "newtype": "Outdoor spaces", "type": "point_of_interest" }, "geometry": { "type": "Point", "coordinates": [ 37.7986378, 55.800464699999985 ] } },
{ "type": "Feature", "properties": { "id": "ChIJj724y840tUYRbXTc22SnDtg", "lat": 55.8004647, "lon": 37.7986378, "name": "Vent.ru", "newtype": "Outdoor spaces", "type": "point_of_interest" }, "geometry": { "type": "Point", "coordinates": [ 37.7986378, 55.800464699999985 ] } },
{ "type": "Feature", "properties": { "id": "ChIJUQW6y840tUYRb-upGMCZMEY", "lat": 55.8004647, "lon": 37.7986378, "name": "Delovoy Tsentr OKB Metallorezhushchikh Stankov", "newtype": "Outdoor spaces", "type": "point_of_interest" }, "geometry": { "type": "Point", "coordinates": [ 37.7986378, 55.800464699999985 ] } },
{ "type": "Feature", "properties": { "id": "ChIJUQW6y840tUYRASzX1eB-JSo", "lat": 55.8004647, "lon": 37.7986378, "name": "Yuniagro, OOO", "newtype": "Outdoor spaces", "type": "point_of_interest" }, "geometry": { "type": "Point", "coordinates": [ 37.7986378, 55.800464699999985 ] } },
{ "type": "Feature", "properties": { "id": "ChIJUQW6y840tUYRW2vCwZDU-wU", "lat": 55.8004647, "lon": 37.7986378, "name": "Status", "newtype": "Outdoor spaces", "type": "point_of_interest" }, "geometry": { "type": "Point", "coordinates": [ 37.7986378, 55.800464699999985 ] } },
{ "type": "Feature", "properties": { "id": "ChIJoQmmpc40tUYRIXM6dlg20Yo", "lat": 55.8000859, "lon": 37.7991201, "name": "\"TURAVIATRANS\" OOO", "newtype": "Professional services", "type": "travel_agency" }, "geometry": { "type": "Point", "coordinates": [ 37.79912010000001, 55.8000859 ] } },
{ "type": "Feature", "properties": { "id": "ChIJe1-rts40tUYRyFOja7lFbYI", "lat": 55.8000859, "lon": 37.7991201, "name": "Elvis-a", "newtype": "Retail", "type": "furniture_store" }, "geometry": { "type": "Point", "coordinates": [ 37.79912010000001, 55.8000859 ] } },
{ "type": "Feature", "properties": { "id": "ChIJe1-rts40tUYRSt-fuRmpMxM", "lat": 55.8000859, "lon": 37.7991201, "name": "OPTIMA LEX, yuridichesko-bukhgalterskaya kompaniya", "newtype": "Outdoor spaces", "type": "point_of_interest" }, "geometry": { "type": "Point", "coordinates": [ 37.79912010000001, 55.8000859 ] } },
{ "type": "Feature", "properties": { "id": "ChIJ712sts40tUYR09y0AhB_RVM", "lat": 55.8000858, "lon": 37.7991016, "name": "Forever Me, интернет-магазин", "newtype": "Outdoor spaces", "type": "point_of_interest" }, "geometry": { "type": "Point", "coordinates": [ 37.7991016, 55.8000858 ] } },
{ "type": "Feature", "properties": { "id": "ChIJUQW6y840tUYRJLXitzxaxUE", "lat": 55.8005158, "lon": 37.7985918, "name": "Fora-Bank", "newtype": "Finance & banking", "type": "bank" }, "geometry": { "type": "Point", "coordinates": [ 37.7985918, 55.8005158 ] } },
{ "type": "Feature", "properties": { "id": "ChIJUQW6y840tUYRozOPcKm9_qQ", "lat": 55.8005268, "lon": 37.7986351, "name": "Luch Pikchers", "newtype": "Outdoor spaces", "type": "point_of_interest" }, "geometry": { "type": "Point", "coordinates": [ 37.7986351, 55.800526799999986 ] } },
{ "type": "Feature", "properties": { "id": "ChIJ212sys40tUYR2NMOB-UMjFw", "lat": 55.8005373, "lon": 37.7986346, "name": "Uniquegames Prazdnichnoye Agentstvo", "newtype": "Outdoor spaces", "type": "point_of_interest" }, "geometry": { "type": "Point", "coordinates": [ 37.7986346, 55.800537299999974 ] } },
{ "type": "Feature", "properties": { "id": "ChIJ212sys40tUYRC3UuZ9DyCjs", "lat": 55.8005373, "lon": 37.7986346, "name": "Vorkl IT-kompaniya", "newtype": "Outdoor spaces", "type": "point_of_interest" }, "geometry": { "type": "Point", "coordinates": [ 37.7986346, 55.800537299999974 ] } },
{ "type": "Feature", "properties": { "id": "ChIJUQW6y840tUYRARbJJtP2uwQ", "lat": 55.800479, "lon": 37.798545, "name": "Kolvi", "newtype": "Retail", "type": "grocery_or_supermarket" }, "geometry": { "type": "Point", "coordinates": [ 37.798545, 55.800479 ] } },
{ "type": "Feature", "properties": { "id": "ChIJSQyty840tUYRMEJG_o_iZI4", "lat": 55.800479, "lon": 37.798545, "name": "Nazar-rus", "newtype": "Retail", "type": "home_goods_store" }, "geometry": { "type": "Point", "coordinates": [ 37.798545, 55.800479 ] } },
{ "type": "Feature", "properties": { "id": "ChIJSQyty840tUYRh3qXE2OYKhM", "lat": 55.800479, "lon": 37.798545, "name": "Керамоторг", "newtype": "Retail", "type": "store" }, "geometry": { "type": "Point", "coordinates": [ 37.798545, 55.800479 ] } },
{ "type": "Feature", "properties": { "id": "ChIJSQyty840tUYRIuGWQaeBQDA", "lat": 55.800479, "lon": 37.798545, "name": "Ооо Ск Ролд", "newtype": "Everyday services", "type": "general_contractor" }, "geometry": { "type": "Point", "coordinates": [ 37.798545, 55.800479 ] } },
{ "type": "Feature", "properties": { "id": "ChIJSQyty840tUYR-5XSmUQITQI", "lat": 55.800479, "lon": 37.798545, "name": "Лайт Cервис", "newtype": "Everyday services", "type": "electrician" }, "geometry": { "type": "Point", "coordinates": [ 37.798545, 55.800479 ] } },
{ "type": "Feature", "properties": { "id": "ChIJj724y840tUYRmUUtm6PT7J0", "lat": 55.800273, "lon": 37.798566, "name": "home kitchen", "newtype": "Food services", "type": "cafe" }, "geometry": { "type": "Point", "coordinates": [ 37.798566, 55.800273 ] } },
{ "type": "Feature", "properties": { "id": "ChIJF5Jvzs40tUYRnfXMhW-Jxxk", "lat": 55.8005272, "lon": 37.797829, "name": "Hotel Mariya", "newtype": "Residential", "type": "lodging" }, "geometry": { "type": "Point", "coordinates": [ 37.797829, 55.8005272 ] } },
{ "type": "Feature", "properties": { "id": "ChIJPb7a0c40tUYR56I7p-Gosw4", "lat": 55.800577, "lon": 37.797419, "name": "Департамент Строительства Г. Москвы ,Дирекция По Эксплуатации Зданий, Инженерных Сооружений И Коммуникаций", "newtype": "Outdoor spaces", "type": "point_of_interest" }, "geometry": { "type": "Point", "coordinates": [ 37.797419, 55.800577 ] } },
{ "type": "Feature", "properties": { "id": "ChIJJQDFGc80tUYRJWQk9OPIfmg", "lat": 55.800456, "lon": 37.7973189, "name": "Akademiya Astrologii", "newtype": "Education", "type": "university" }, "geometry": { "type": "Point", "coordinates": [ 37.7973189, 55.800456 ] } },
{ "type": "Feature", "properties": { "id": "ChIJPb7a0c40tUYR_fZRjIkw9uc", "lat": 55.800577, "lon": 37.797419, "name": "Departament Stroitelstva goroda Moskvy", "newtype": "Outdoor spaces", "type": "point_of_interest" }, "geometry": { "type": "Point", "coordinates": [ 37.797419, 55.800577 ] } },
{ "type": "Feature", "properties": { "id": "ChIJPYcY0M40tUYR0ZX2V6AeA78", "lat": 55.8004739, "lon": 37.7972612, "name": "ПИАРПОСТ", "newtype": "Outdoor spaces", "type": "point_of_interest" }, "geometry": { "type": "Point", "coordinates": [ 37.797261199999987, 55.800473899999986 ] } },
{ "type": "Feature", "properties": { "id": "ChIJd4Hgz840tUYRL8gVO9clFIs", "lat": 55.8002472, "lon": 37.7977333, "name": "RIA Panda OOO Filial", "newtype": "Health & beauty", "type": "health" }, "geometry": { "type": "Point", "coordinates": [ 37.7977333, 55.8002472 ] } },
{ "type": "Feature", "properties": { "id": "ChIJd4Hgz840tUYR_3evFrvEySs", "lat": 55.8002472, "lon": 37.7977333, "name": "SKS Maydan OOO", "newtype": "Outdoor spaces", "type": "point_of_interest" }, "geometry": { "type": "Point", "coordinates": [ 37.7977333, 55.8002472 ] } },
{ "type": "Feature", "properties": { "id": "ChIJ2_Nmzs40tUYRf7agKKuxfqk", "lat": 55.8002472, "lon": 37.7977333, "name": "Belyy gorod, set' knizhnykh magazinov", "newtype": "Outdoor spaces", "type": "point_of_interest" }, "geometry": { "type": "Point", "coordinates": [ 37.7977333, 55.8002472 ] } },
{ "type": "Feature", "properties": { "id": "ChIJd4Hgz840tUYRlr4j_Z4uw2M", "lat": 55.8002472, "lon": 37.7977333, "name": "Futureshop.ru", "newtype": "Retail", "type": "store" }, "geometry": { "type": "Point", "coordinates": [ 37.7977333, 55.8002472 ] } },
{ "type": "Feature", "properties": { "id": "ChIJd4Hgz840tUYRS1_mB40QILQ", "lat": 55.8002472, "lon": 37.7977333, "name": "Alyans Ipoteka, Agentstvo Nedvizhimosti", "newtype": "Professional services", "type": "real_estate_agency" }, "geometry": { "type": "Point", "coordinates": [ 37.7977333, 55.8002472 ] } },
{ "type": "Feature", "properties": { "id": "ChIJUXhezs40tUYR01ZG_MX53pc", "lat": 55.8002472, "lon": 37.7977333, "name": "Gorbeton, OOO", "newtype": "Outdoor spaces", "type": "point_of_interest" }, "geometry": { "type": "Point", "coordinates": [ 37.7977333, 55.8002472 ] } },
{ "type": "Feature", "properties": { "id": "ChIJQxVQSDHLSkER6xIUSNCKMJ8", "lat": 55.8001905, "lon": 37.7974413, "name": "Vdm-grupp, Tf, OOO", "newtype": "Outdoor spaces", "type": "point_of_interest" }, "geometry": { "type": "Point", "coordinates": [ 37.797441299999988, 55.800190499999985 ] } },
{ "type": "Feature", "properties": { "id": "ChIJd4Hgz840tUYRSNkY_2bltwQ", "lat": 55.8003947, "lon": 37.7971858, "name": "Art-real, Veb-studiya, OOO", "newtype": "Outdoor spaces", "type": "point_of_interest" }, "geometry": { "type": "Point", "coordinates": [ 37.7971858, 55.8003947 ] } },
{ "type": "Feature", "properties": { "id": "ChIJpWqDxc40tUYR5NxF9sb-qwE", "lat": 55.800366, "lon": 37.797401, "name": "УЧЕБНО-ЛИНГВИСТИЧЕСКИЙ ЦЕНТР \"ИН-ЯЗ\"", "newtype": "Outdoor spaces", "type": "point_of_interest" }, "geometry": { "type": "Point", "coordinates": [ 37.797401, 55.800366 ] } },
{ "type": "Feature", "properties": { "id": "ChIJvY9PTX41tUYRDggmr3CUWj0", "lat": 55.800475, "lon": 37.796841, "name": "Техобследование.Ру", "newtype": "Outdoor spaces", "type": "point_of_interest" }, "geometry": { "type": "Point", "coordinates": [ 37.796841, 55.800475 ] } },
{ "type": "Feature", "properties": { "id": "ChIJN9gd0M40tUYRNHZiT95aYCA", "lat": 55.8001876, "lon": 37.7972645, "name": "Baltenergetika, OOO", "newtype": "Food services", "type": "food" }, "geometry": { "type": "Point", "coordinates": [ 37.7972645, 55.8001876 ] } },
{ "type": "Feature", "properties": { "id": "ChIJN9gd0M40tUYRqOf0ScVgOe0", "lat": 55.8001876, "lon": 37.7972645, "name": "TTK Navigator, OOO", "newtype": "Outdoor spaces", "type": "point_of_interest" }, "geometry": { "type": "Point", "coordinates": [ 37.7972645, 55.8001876 ] } },
{ "type": "Feature", "properties": { "id": "ChIJd4Hgz840tUYRPib0onTvDYg", "lat": 55.8001876, "lon": 37.7972645, "name": "Po Ekspluatatsii Zdaniy Inzhenernykh Kommunikatsiy Direktsiya GUP", "newtype": "Outdoor spaces", "type": "point_of_interest" }, "geometry": { "type": "Point", "coordinates": [ 37.7972645, 55.8001876 ] } },
{ "type": "Feature", "properties": { "id": "ChIJgeoY0M40tUYRcC2mTQ3QBaI", "lat": 55.8001875, "lon": 37.7972568, "name": "Pravovaya zashchita, yuridicheskaya kompaniya", "newtype": "Outdoor spaces", "type": "point_of_interest" }, "geometry": { "type": "Point", "coordinates": [ 37.797256800000014, 55.8001875 ] } },
{ "type": "Feature", "properties": { "id": "ChIJgeoY0M40tUYR1c08eZTUe0Q", "lat": 55.8001875, "lon": 37.7972568, "name": "Rostekresurs", "newtype": "Outdoor spaces", "type": "point_of_interest" }, "geometry": { "type": "Point", "coordinates": [ 37.797256800000014, 55.8001875 ] } },
{ "type": "Feature", "properties": { "id": "ChIJydFgjs40tUYRKib9a9DK3dw", "lat": 55.8001876, "lon": 37.7972645, "name": "Evro-servis", "newtype": "Transportation & logistics", "type": "moving_company" }, "geometry": { "type": "Point", "coordinates": [ 37.7972645, 55.8001876 ] } },
{ "type": "Feature", "properties": { "id": "ChIJN9gd0M40tUYRs1QeE8egUK8", "lat": 55.8001876, "lon": 37.7972645, "name": "Nashe Remeslo", "newtype": "Outdoor spaces", "type": "point_of_interest" }, "geometry": { "type": "Point", "coordinates": [ 37.7972645, 55.8001876 ] } },
{ "type": "Feature", "properties": { "id": "ChIJN9gd0M40tUYRTq2-8Dgycks", "lat": 55.8001876, "lon": 37.7972645, "name": "Inzhenernykh Sooruzheniy I Kommunikatsiy DEZ g. Moskvy", "newtype": "Outdoor spaces", "type": "point_of_interest" }, "geometry": { "type": "Point", "coordinates": [ 37.7972645, 55.8001876 ] } },
{ "type": "Feature", "properties": { "id": "ChIJN9gd0M40tUYRnuFQU3U2ni4", "lat": 55.8001876, "lon": 37.7972645, "name": "Ruspromservis", "newtype": "Outdoor spaces", "type": "point_of_interest" }, "geometry": { "type": "Point", "coordinates": [ 37.7972645, 55.8001876 ] } },
{ "type": "Feature", "properties": { "id": "ChIJ43yfcrYttUYR4nQu9RK3OCg", "lat": 55.8001876, "lon": 37.7972645, "name": "Ragnir", "newtype": "Professional services", "type": "real_estate_agency" }, "geometry": { "type": "Point", "coordinates": [ 37.7972645, 55.8001876 ] } },
{ "type": "Feature", "properties": { "id": "ChIJN9gd0M40tUYRUuih9FZcDQM", "lat": 55.8001876, "lon": 37.7972645, "name": "Tekhnicheskaya Motornaya Kompaniya", "newtype": "Outdoor spaces", "type": "point_of_interest" }, "geometry": { "type": "Point", "coordinates": [ 37.7972645, 55.8001876 ] } },
{ "type": "Feature", "properties": { "id": "ChIJ7d9JOc80tUYRK-hL17VhLAM", "lat": 55.801122, "lon": 37.794145, "name": "EXIST.RU", "newtype": "Retail", "type": "store" }, "geometry": { "type": "Point", "coordinates": [ 37.794145, 55.801122 ] } },
{ "type": "Feature", "properties": { "id": "ChIJ-dbMOc80tUYRltAZYBiBD9Q", "lat": 55.8012235, "lon": 37.794315, "name": "YuMLA, tsentr razvitiya rebenka", "newtype": "Education", "type": "school" }, "geometry": { "type": "Point", "coordinates": [ 37.794315, 55.8012235 ] } },
{ "type": "Feature", "properties": { "id": "ChIJaa4LOc80tUYR6n181Iv8I8Q", "lat": 55.801227, "lon": 37.794289, "name": "Eksist", "newtype": "Car services", "type": "car_repair" }, "geometry": { "type": "Point", "coordinates": [ 37.794289, 55.801227 ] } },
{ "type": "Feature", "properties": { "id": "ChIJaa4LOc80tUYRhnm3AGQ4thc", "lat": 55.801227, "lon": 37.794289, "name": "Detskiy Sad № 316", "newtype": "Education", "type": "school" }, "geometry": { "type": "Point", "coordinates": [ 37.794289, 55.801227 ] } },
{ "type": "Feature", "properties": { "id": "ChIJ-dbMOc80tUYReOeIRVkk4oE", "lat": 55.8013569, "lon": 37.7941284, "name": "Literaturno-izdatelskoye Agentstvo Aleksandra Korzhenevskogo", "newtype": "Outdoor spaces", "type": "point_of_interest" }, "geometry": { "type": "Point", "coordinates": [ 37.7941284, 55.801356899999973 ] } },
{ "type": "Feature", "properties": { "id": "ChIJ4zJ1Oc80tUYRkJGkET9iy2Q", "lat": 55.8012198, "lon": 37.7941321, "name": "Optimalnye Kommunikatsii, ZAO", "newtype": "Outdoor spaces", "type": "point_of_interest" }, "geometry": { "type": "Point", "coordinates": [ 37.7941321, 55.8012198 ] } },
{ "type": "Feature", "properties": { "id": "ChIJaa4LOc80tUYRRmWYfjEmn4M", "lat": 55.801227, "lon": 37.794289, "name": "Уролог венеролог Егоров Андрей Александрович", "newtype": "Health & beauty", "type": "doctor" }, "geometry": { "type": "Point", "coordinates": [ 37.794289, 55.801227 ] } },
{ "type": "Feature", "properties": { "id": "ChIJ40pK2M40tUYRgfR069zKnYs", "lat": 55.800589, "lon": 37.7962704, "name": "Agentstvo Nedvizhimosti \"NOVA\"", "newtype": "Professional services", "type": "real_estate_agency" }, "geometry": { "type": "Point", "coordinates": [ 37.796270399999983, 55.800589 ] } },
{ "type": "Feature", "properties": { "id": "ChIJIfqN4840tUYRZ5vMwEqO8Xo", "lat": 55.800604, "lon": 37.796299, "name": "fMagazin.ru", "newtype": "Retail", "type": "store" }, "geometry": { "type": "Point", "coordinates": [ 37.796299, 55.800604 ] } },
{ "type": "Feature", "properties": { "id": "ChIJeQr86M40tUYR6TCSnh_z98w", "lat": 55.800614, "lon": 37.796272, "name": "\"Dzhast Tim\"", "newtype": "Education", "type": "school" }, "geometry": { "type": "Point", "coordinates": [ 37.796272, 55.800614 ] } },
{ "type": "Feature", "properties": { "id": "ChIJwf1I2M40tUYRH3ExXhcQgPg", "lat": 55.800614, "lon": 37.796272, "name": "VDM-GRUPP, torgovaya kompaniya", "newtype": "Outdoor spaces", "type": "point_of_interest" }, "geometry": { "type": "Point", "coordinates": [ 37.796272, 55.800614 ] } },
{ "type": "Feature", "properties": { "id": "ChIJwf1I2M40tUYRlrIE-4Tlz5c", "lat": 55.800614, "lon": 37.796272, "name": "AVTO GLOBUS, magazin avtozapchastey", "newtype": "Car services", "type": "car_dealer" }, "geometry": { "type": "Point", "coordinates": [ 37.796272, 55.800614 ] } },
{ "type": "Feature", "properties": { "id": "ChIJD_eE7KVJtUYRmdlfsOgZb3I", "lat": 55.8006049, "lon": 37.796299, "name": "Техно-Гардарика", "newtype": "Outdoor spaces", "type": "point_of_interest" }, "geometry": { "type": "Point", "coordinates": [ 37.796299, 55.80060490000001 ] } },
{ "type": "Feature", "properties": { "id": "ChIJSQyty840tUYRvQnkbs-k5YQ", "lat": 55.8006049, "lon": 37.796299, "name": "Компания ИФ-Трейд", "newtype": "Everyday services", "type": "general_contractor" }, "geometry": { "type": "Point", "coordinates": [ 37.796299, 55.80060490000001 ] } },
{ "type": "Feature", "properties": { "id": "ChIJC7RL2M40tUYR4bVlPjlj7e8", "lat": 55.8006049, "lon": 37.796299, "name": "Dismantling Nissan Primera P12", "newtype": "Car services", "type": "car_repair" }, "geometry": { "type": "Point", "coordinates": [ 37.796299, 55.80060490000001 ] } },
{ "type": "Feature", "properties": { "id": "ChIJw_1I2M40tUYRmZ5jW9_Hgqc", "lat": 55.800614, "lon": 37.7962721, "name": "ЭлементДекора", "newtype": "Retail", "type": "store" }, "geometry": { "type": "Point", "coordinates": [ 37.7962721, 55.800614 ] } },
{ "type": "Feature", "properties": { "id": "ChIJR7auaKzT3UMRes1ZxD7nTVA", "lat": 55.800614, "lon": 37.7962721, "name": "Belyy Gorod OOO", "newtype": "Retail", "type": "book_store" }, "geometry": { "type": "Point", "coordinates": [ 37.7962721, 55.800614 ] } },
{ "type": "Feature", "properties": { "id": "ChIJwf1I2M40tUYRwZ5lhDI1c-s", "lat": 55.800614, "lon": 37.796272, "name": "Biznes-suveniry Spravochnik", "newtype": "Outdoor spaces", "type": "point_of_interest" }, "geometry": { "type": "Point", "coordinates": [ 37.796272, 55.800614 ] } },
{ "type": "Feature", "properties": { "id": "ChIJR7auaKzT3UMRpe4xgrSGdnM", "lat": 55.800605, "lon": 37.796299, "name": "Belyy Gorod OOO", "newtype": "Retail", "type": "book_store" }, "geometry": { "type": "Point", "coordinates": [ 37.796299, 55.800605 ] } },
{ "type": "Feature", "properties": { "id": "ChIJ_RyH8qVJtUYRAOXtNWotnhk", "lat": 55.800605, "lon": 37.796299, "name": "Tech-Gardarika LLC", "newtype": "Outdoor spaces", "type": "point_of_interest" }, "geometry": { "type": "Point", "coordinates": [ 37.796299, 55.800605 ] } },
{ "type": "Feature", "properties": { "id": "ChIJC7RL2M40tUYRddSlKOsUDfo", "lat": 55.8006049, "lon": 37.796299, "name": "Витая труба", "newtype": "Outdoor spaces", "type": "point_of_interest" }, "geometry": { "type": "Point", "coordinates": [ 37.796299, 55.80060490000001 ] } },
{ "type": "Feature", "properties": { "id": "ChIJC7RL2M40tUYRNSZ9XBuifAs", "lat": 55.8006049, "lon": 37.796299, "name": "Разборка Хендай Санта Фе Классик", "newtype": "Car services", "type": "car_repair" }, "geometry": { "type": "Point", "coordinates": [ 37.796299, 55.80060490000001 ] } },
{ "type": "Feature", "properties": { "id": "ChIJwf1I2M40tUYRfR7SYgRleFk", "lat": 55.800614, "lon": 37.796272, "name": "DM-ART-DESIGN.RU, интернет-магазин", "newtype": "Outdoor spaces", "type": "point_of_interest" }, "geometry": { "type": "Point", "coordinates": [ 37.796272, 55.800614 ] } },
{ "type": "Feature", "properties": { "id": "ChIJTa1O2M40tUYRwqB-Px56QYA", "lat": 55.8004868, "lon": 37.7962863, "name": "Август Борг", "newtype": "Outdoor spaces", "type": "point_of_interest" }, "geometry": { "type": "Point", "coordinates": [ 37.7962863, 55.8004868 ] } },
{ "type": "Feature", "properties": { "id": "ChIJTa1O2M40tUYRqmsHZOiLQa8", "lat": 55.8004864, "lon": 37.7962608, "name": "Otlichnoye atelye", "newtype": "Outdoor spaces", "type": "point_of_interest" }, "geometry": { "type": "Point", "coordinates": [ 37.7962608, 55.8004864 ] } },
{ "type": "Feature", "properties": { "id": "ChIJTa1O2M40tUYRSmAexT9XHuA", "lat": 55.8004864, "lon": 37.7962608, "name": "If-servis", "newtype": "Everyday services", "type": "general_contractor" }, "geometry": { "type": "Point", "coordinates": [ 37.7962608, 55.8004864 ] } },
{ "type": "Feature", "properties": { "id": "ChIJ40pK2M40tUYRGPqnG2pJw90", "lat": 55.8004868, "lon": 37.7962864, "name": "Postavshchiki Poligraficheskikh Materialov I Oborudovaniya Spravochnik", "newtype": "Outdoor spaces", "type": "point_of_interest" }, "geometry": { "type": "Point", "coordinates": [ 37.7962864, 55.8004868 ] } },
{ "type": "Feature", "properties": { "id": "ChIJJSqtIc80tUYRytpSk50ICFo", "lat": 55.8001672, "lon": 37.7953448, "name": "Artos", "newtype": "Everyday services", "type": "general_contractor" }, "geometry": { "type": "Point", "coordinates": [ 37.795344799999981, 55.8001672 ] } },
{ "type": "Feature", "properties": { "id": "ChIJRR-yIc80tUYRAwWLpC8P5uY", "lat": 55.8001671, "lon": 37.7952978, "name": "RNtoys-igrushka, proizvodstvenno-torgovaya kompaniya", "newtype": "Retail", "type": "store" }, "geometry": { "type": "Point", "coordinates": [ 37.7952978, 55.8001671 ] } },
{ "type": "Feature", "properties": { "id": "ChIJIdsYIM80tUYR4lCoZUtNpKo", "lat": 55.8001671, "lon": 37.7953033, "name": "Tsentr Ekologicheskoy Bezopasnosti Grazhdanskoy Aviatsii ZAO", "newtype": "Outdoor spaces", "type": "point_of_interest" }, "geometry": { "type": "Point", "coordinates": [ 37.7953033, 55.8001671 ] } },
{ "type": "Feature", "properties": { "id": "ChIJiQazIc80tUYRd3Kbq-lojyU", "lat": 55.8001671, "lon": 37.7953033, "name": "AstronEnergo, OOO", "newtype": "Retail", "type": "store" }, "geometry": { "type": "Point", "coordinates": [ 37.7953033, 55.8001671 ] } },
{ "type": "Feature", "properties": { "id": "ChIJJQDFGc80tUYRlca0RXqQsvQ", "lat": 55.800421, "lon": 37.794116, "name": "Podzemgidromineral NPTs OOO", "newtype": "Outdoor spaces", "type": "point_of_interest" }, "geometry": { "type": "Point", "coordinates": [ 37.794116, 55.800421 ] } },
{ "type": "Feature", "properties": { "id": "ChIJJ_HEGc80tUYRzM72jZVmeac", "lat": 55.800421, "lon": 37.794116, "name": "Glimatmarket", "newtype": "Outdoor spaces", "type": "point_of_interest" }, "geometry": { "type": "Point", "coordinates": [ 37.794116, 55.800421 ] } },
{ "type": "Feature", "properties": { "id": "ChIJJ_HEGc80tUYRGdBa0SEPbTk", "lat": 55.800421, "lon": 37.794116, "name": "Otdel Sluzhby Sudebnykh Pristavov Po Vostochnomu Administrativnomu Okrugu", "newtype": "Outdoor spaces", "type": "point_of_interest" }, "geometry": { "type": "Point", "coordinates": [ 37.794116, 55.800421 ] } },
{ "type": "Feature", "properties": { "id": "ChIJryWNgvJRtUYRZ9bVMTZaics", "lat": 55.800421, "lon": 37.794116, "name": "Akvarel' Stroitelnaya Kompaniya", "newtype": "Everyday services", "type": "general_contractor" }, "geometry": { "type": "Point", "coordinates": [ 37.794116, 55.800421 ] } },
{ "type": "Feature", "properties": { "id": "ChIJUdceA880tUYRkIa6_28iyeQ", "lat": 55.8004164, "lon": 37.7941168, "name": "Upravleniye Federalnoy Sluzhby Sudebnykh Pristavov Po g. Moskve Otdel Po VAO", "newtype": "Administrative", "type": "courthouse" }, "geometry": { "type": "Point", "coordinates": [ 37.7941168, 55.800416399999989 ] } },
{ "type": "Feature", "properties": { "id": "ChIJ-Xt28MU0tUYR5yBLfFxTjfk", "lat": 55.8025109, "lon": 37.791263, "name": "Sirenevyy bulvar", "newtype": "Transportation & logistics", "type": "route" }, "geometry": { "type": "Point", "coordinates": [ 37.791263, 55.8025109 ] } },
{ "type": "Feature", "properties": { "id": "ChIJZcWDUc80tUYR94lmGQPz8wA", "lat": 55.8023063, "lon": 37.793361, "name": "Detskaya Biblioteka № 66", "newtype": "Education", "type": "library" }, "geometry": { "type": "Point", "coordinates": [ 37.793361, 55.802306299999984 ] } },
{ "type": "Feature", "properties": { "id": "ChIJO1hZ2Ic2tUYRmmMFd3jnTQA", "lat": 55.802251, "lon": 37.79327, "name": "ДетствоГрад", "newtype": "Retail", "type": "store" }, "geometry": { "type": "Point", "coordinates": [ 37.79327, 55.802251 ] } },
{ "type": "Feature", "properties": { "id": "ChIJncWDUc80tUYRfD4Girp0Xgs", "lat": 55.8021815, "lon": 37.7933972, "name": "Layfstayl", "newtype": "Retail", "type": "store" }, "geometry": { "type": "Point", "coordinates": [ 37.7933972, 55.8021815 ] } },
{ "type": "Feature", "properties": { "id": "ChIJncWDUc80tUYRk-QCi_1qe2k", "lat": 55.80218, "lon": 37.793298, "name": "Vostochnogo AO Izmaylovo Rayonnyy Otdel Gtszhs № 41", "newtype": "Outdoor spaces", "type": "point_of_interest" }, "geometry": { "type": "Point", "coordinates": [ 37.793298, 55.80218 ] } },
{ "type": "Feature", "properties": { "id": "ChIJI5CCUc80tUYRr0ZfQUWfUAE", "lat": 55.802179, "lon": 37.7932701, "name": "Bulvar, kafe-bar OOO \"Port\"", "newtype": "Food services", "type": "bar" }, "geometry": { "type": "Point", "coordinates": [ 37.793270099999987, 55.802179 ] } },
{ "type": "Feature", "properties": { "id": "ChIJa16dUc80tUYRLjbUnuwrdY0", "lat": 55.8021725, "lon": 37.7933975, "name": "Apelsin studiya krasoty", "newtype": "Health & beauty", "type": "beauty_salon" }, "geometry": { "type": "Point", "coordinates": [ 37.7933975, 55.802172499999976 ] } },
{ "type": "Feature", "properties": { "id": "ChIJI5CCUc80tUYRdcR0bnlHS54", "lat": 55.8021808, "lon": 37.7933972, "name": "Salon bytovogo obsluzhivaniya, IP Parshikova T. B.", "newtype": "Outdoor spaces", "type": "point_of_interest" }, "geometry": { "type": "Point", "coordinates": [ 37.7933972, 55.802180799999981 ] } },
{ "type": "Feature", "properties": { "id": "ChIJed4hUs80tUYRqmNCT_aurbM", "lat": 55.802173, "lon": 37.793452, "name": "Sirenevyy bulvar", "newtype": "Transportation & logistics", "type": "bus_station" }, "geometry": { "type": "Point", "coordinates": [ 37.793452, 55.802173 ] } },
{ "type": "Feature", "properties": { "id": "Ejs3LdGPINCf0LDRgNC60L7QstCw0Y8g0YPQuy4sIDMwLCDQnNC-0YHQutCy0LAsINCg0L7RgdGB0LjRjw", "lat": 55.8022479, "lon": 37.7936774, "name": "7-ya Parkovaya ul., 30", "newtype": "Outdoor spaces", "type": "street_address" }, "geometry": { "type": "Point", "coordinates": [ 37.793677399999986, 55.8022479 ] } },
{ "type": "Feature", "properties": { "id": "ChIJncWDUc80tUYR5pT9bpMzgMw", "lat": 55.802057, "lon": 37.7933469, "name": "Учебный центр \"КРЦ\"", "newtype": "Retail", "type": "store" }, "geometry": { "type": "Point", "coordinates": [ 37.7933469, 55.802057 ] } },
{ "type": "Feature", "properties": { "id": "ChIJ_esoTM80tUYR07qauacI3iE", "lat": 55.802015, "lon": 37.793889, "name": "Blyuz", "newtype": "Health & beauty", "type": "beauty_salon" }, "geometry": { "type": "Point", "coordinates": [ 37.793889, 55.802015 ] } },
{ "type": "Feature", "properties": { "id": "ChIJgZaD-MU0tUYRpqRa-cpeSvc", "lat": 55.802384, "lon": 37.792344, "name": "Салон", "newtype": "Health & beauty", "type": "beauty_salon" }, "geometry": { "type": "Point", "coordinates": [ 37.792344, 55.802384 ] } },
{ "type": "Feature", "properties": { "id": "ChIJK-QsVs80tUYRD-KSfJ3TIuU", "lat": 55.802386, "lon": 37.79211, "name": "Кафе Бульвар", "newtype": "Food services", "type": "cafe" }, "geometry": { "type": "Point", "coordinates": [ 37.79211, 55.802386 ] } },
{ "type": "Feature", "properties": { "id": "ChIJgZaD-MU0tUYRwiUaK4MAelQ", "lat": 55.802384, "lon": 37.792344, "name": "Atelye", "newtype": "Outdoor spaces", "type": "point_of_interest" }, "geometry": { "type": "Point", "coordinates": [ 37.792344, 55.802384 ] } },
{ "type": "Feature", "properties": { "id": "ChIJK-QsVs80tUYRxj0FX0AWlfQ", "lat": 55.802384, "lon": 37.792385, "name": "Хозтовары", "newtype": "Retail", "type": "hardware_store" }, "geometry": { "type": "Point", "coordinates": [ 37.792385, 55.802384 ] } },
{ "type": "Feature", "properties": { "id": "ChIJK-QsVs80tUYRPnfg5XgWPFo", "lat": 55.802343, "lon": 37.792387, "name": "OOO \"Veber Bauer\"", "newtype": "Outdoor spaces", "type": "point_of_interest" }, "geometry": { "type": "Point", "coordinates": [ 37.792387, 55.802343 ] } },
{ "type": "Feature", "properties": { "id": "ChIJ0f1DvsU0tUYRCSv7wuZYNpM", "lat": 55.802332, "lon": 37.788786, "name": "Аптека №33", "newtype": "Retail", "type": "pharmacy" }, "geometry": { "type": "Point", "coordinates": [ 37.788786, 55.802332 ] } },
{ "type": "Feature", "properties": { "id": "ChIJgTOni8U0tUYRZeOFvRNDq5U", "lat": 55.80162, "lon": 37.790576, "name": "№ 403", "newtype": "Education", "type": "school" }, "geometry": { "type": "Point", "coordinates": [ 37.790576, 55.80162 ] } },
{ "type": "Feature", "properties": { "id": "ChIJBcQnvsU0tUYRNSAsjZ68cRU", "lat": 55.8023238, "lon": 37.7885537, "name": "Stolichnye Apteki № 4 \/99 GUP", "newtype": "Retail", "type": "pharmacy" }, "geometry": { "type": "Point", "coordinates": [ 37.7885537, 55.802323799999982 ] } },
{ "type": "Feature", "properties": { "id": "ChIJP_ZXlcU0tUYRA-JNl_fIznQ", "lat": 55.802414, "lon": 37.789192, "name": "5-ya Parkovaya ulitsa", "newtype": "Transportation & logistics", "type": "bus_station" }, "geometry": { "type": "Point", "coordinates": [ 37.789192, 55.802414 ] } },
{ "type": "Feature", "properties": { "id": "ChIJITu6v8U0tUYR_MySL_CEl08", "lat": 55.8024194, "lon": 37.788926, "name": "5-я Парковая улица", "newtype": "Transportation & logistics", "type": "bus_station" }, "geometry": { "type": "Point", "coordinates": [ 37.788926, 55.8024194 ] } },
{ "type": "Feature", "properties": { "id": "ChIJxXqAi8U0tUYRPVIpPUa1zds", "lat": 55.801766, "lon": 37.790545, "name": "У Иваныча", "newtype": "Retail", "type": "grocery_or_supermarket" }, "geometry": { "type": "Point", "coordinates": [ 37.790545, 55.801766 ] } },
{ "type": "Feature", "properties": { "id": "EkM3LdGPINCf0LDRgNC60L7QstCw0Y8g0YPQuy4sIDIzLCDQnNC-0YHQutCy0LAsINCg0L7RgdGB0LjRjywgMTA1MjY0", "lat": 55.8009682, "lon": 37.7936993, "name": "7-ya Parkovaya ul., 23", "newtype": "Outdoor spaces", "type": "street_address" }, "geometry": { "type": "Point", "coordinates": [ 37.793699299999972, 55.8009682 ] } },
{ "type": "Feature", "properties": { "id": "ChIJsxCvEc80tUYRnuWJnE9iFR8", "lat": 55.8004948, "lon": 37.7933348, "name": "105264", "newtype": "Everyday services", "type": "post_office" }, "geometry": { "type": "Point", "coordinates": [ 37.7933348, 55.800494799999981 ] } },
{ "type": "Feature", "properties": { "id": "ChIJ71LaE880tUYRLdyovfcnkE4", "lat": 55.8004713, "lon": 37.7934453, "name": "Spetspromstroy, OOO", "newtype": "Everyday services", "type": "general_contractor" }, "geometry": { "type": "Point", "coordinates": [ 37.7934453, 55.800471299999977 ] } },
{ "type": "Feature", "properties": { "id": "ChIJq9nzE9I0tUYR6Q2zmZnRfvU", "lat": 55.800448, "lon": 37.7933095, "name": "ZAO \"MPO Elektromontazh\"", "newtype": "Outdoor spaces", "type": "point_of_interest" }, "geometry": { "type": "Point", "coordinates": [ 37.7933095, 55.800448 ] } },
{ "type": "Feature", "properties": { "id": "ChIJyUkzDc80tUYRtRbfBLEK_dM", "lat": 55.8004713, "lon": 37.7934453, "name": "Reminko", "newtype": "Retail", "type": "store" }, "geometry": { "type": "Point", "coordinates": [ 37.7934453, 55.800471299999977 ] } },
{ "type": "Feature", "properties": { "id": "EkM3LdGPINCf0LDRgNC60L7QstCw0Y8g0YPQuy4sIDI2LCDQnNC-0YHQutCy0LAsINCg0L7RgdGB0LjRjywgMTA1MjY0", "lat": 55.8003439, "lon": 37.7937302, "name": "7-ya Parkovaya ul., 26", "newtype": "Outdoor spaces", "type": "street_address" }, "geometry": { "type": "Point", "coordinates": [ 37.7937302, 55.800343899999987 ] } },
{ "type": "Feature", "properties": { "id": "ChIJJ_HEGc80tUYRm1fAfYy3ttQ", "lat": 55.8004212, "lon": 37.7939682, "name": "Teplye Poly I Kabelnyy Obogrev Klimatmarket", "newtype": "Outdoor spaces", "type": "point_of_interest" }, "geometry": { "type": "Point", "coordinates": [ 37.7939682, 55.800421199999988 ] } },
{ "type": "Feature", "properties": { "id": "ChIJJQDFGc80tUYRquDy5BeQnQs", "lat": 55.8004222, "lon": 37.7939682, "name": "Zov Sysknoye Agentstvo", "newtype": "Outdoor spaces", "type": "point_of_interest" }, "geometry": { "type": "Point", "coordinates": [ 37.7939682, 55.8004222 ] } },
{ "type": "Feature", "properties": { "id": "ChIJJQDFGc80tUYRnUUpfYTg-08", "lat": 55.8004222, "lon": 37.7939682, "name": "Tekhnodizayn-m, Ptf, OOO", "newtype": "Outdoor spaces", "type": "point_of_interest" }, "geometry": { "type": "Point", "coordinates": [ 37.7939682, 55.8004222 ] } },
{ "type": "Feature", "properties": { "id": "ChIJJQDFGc80tUYRrHbLT-eLW9M", "lat": 55.8004222, "lon": 37.7939682, "name": "Vsk Vertikal'", "newtype": "Everyday services", "type": "general_contractor" }, "geometry": { "type": "Point", "coordinates": [ 37.7939682, 55.8004222 ] } },
{ "type": "Feature", "properties": { "id": "ChIJJQDFGc80tUYRX8esBV9G83U", "lat": 55.8004222, "lon": 37.7939682, "name": "Yunit Interyer", "newtype": "Outdoor spaces", "type": "point_of_interest" }, "geometry": { "type": "Point", "coordinates": [ 37.7939682, 55.8004222 ] } },
{ "type": "Feature", "properties": { "id": "ChIJJQDFGc80tUYRZRizj6Uhq6w", "lat": 55.8004212, "lon": 37.7939682, "name": "ClimatMarket", "newtype": "Everyday services", "type": "general_contractor" }, "geometry": { "type": "Point", "coordinates": [ 37.7939682, 55.800421199999988 ] } },
{ "type": "Feature", "properties": { "id": "ChIJJQDFGc80tUYRV1ebmj4u0uw", "lat": 55.8004222, "lon": 37.7939682, "name": "Advans Dizayn OOO", "newtype": "Outdoor spaces", "type": "point_of_interest" }, "geometry": { "type": "Point", "coordinates": [ 37.7939682, 55.8004222 ] } },
{ "type": "Feature", "properties": { "id": "ChIJJQDFGc80tUYRELh3G6QeN00", "lat": 55.8004222, "lon": 37.7939682, "name": "Kgs Konsalting OOO", "newtype": "Outdoor spaces", "type": "point_of_interest" }, "geometry": { "type": "Point", "coordinates": [ 37.7939682, 55.8004222 ] } },
{ "type": "Feature", "properties": { "id": "ChIJJQDFGc80tUYRssoXNk0sUxY", "lat": 55.8004222, "lon": 37.7939682, "name": "Intervidioservis, Tf, OOO", "newtype": "Outdoor spaces", "type": "point_of_interest" }, "geometry": { "type": "Point", "coordinates": [ 37.7939682, 55.8004222 ] } },
{ "type": "Feature", "properties": { "id": "ChIJJQDFGc80tUYRb6spSk-m_Wg", "lat": 55.8004116, "lon": 37.7939684, "name": "Germetstroy, Tf, OOO", "newtype": "Outdoor spaces", "type": "point_of_interest" }, "geometry": { "type": "Point", "coordinates": [ 37.7939684, 55.8004116 ] } },
{ "type": "Feature", "properties": { "id": "ChIJ-S3dGc80tUYRQQtyel0lZPk", "lat": 55.8004116, "lon": 37.7939684, "name": "Rif", "newtype": "Everyday services", "type": "general_contractor" }, "geometry": { "type": "Point", "coordinates": [ 37.7939684, 55.8004116 ] } },
{ "type": "Feature", "properties": { "id": "ChIJ-S3dGc80tUYRngiSccKW20Q", "lat": 55.8004116, "lon": 37.7939684, "name": "Moya Imperiya Tsentr Upravleniya", "newtype": "Outdoor spaces", "type": "point_of_interest" }, "geometry": { "type": "Point", "coordinates": [ 37.7939684, 55.8004116 ] } },
{ "type": "Feature", "properties": { "id": "ChIJ-S3dGc80tUYRhKaad0XNLQs", "lat": 55.8004116, "lon": 37.7939684, "name": "Eleks-m, OOO", "newtype": "Outdoor spaces", "type": "point_of_interest" }, "geometry": { "type": "Point", "coordinates": [ 37.7939684, 55.8004116 ] } },
{ "type": "Feature", "properties": { "id": "ChIJJQDFGc80tUYRhsa5Hn6Mz9w", "lat": 55.8004116, "lon": 37.7939684, "name": "Snytkov L.m., Torgovaya Kompaniya, IP", "newtype": "Outdoor spaces", "type": "point_of_interest" }, "geometry": { "type": "Point", "coordinates": [ 37.7939684, 55.8004116 ] } },
{ "type": "Feature", "properties": { "id": "ChIJJQDFGc80tUYRvvDtcHr8B64", "lat": 55.8004116, "lon": 37.7939684, "name": "Rpe", "newtype": "Health & beauty", "type": "health" }, "geometry": { "type": "Point", "coordinates": [ 37.7939684, 55.8004116 ] } },
{ "type": "Feature", "properties": { "id": "ChIJ-S3dGc80tUYRJxCB7cswzzE", "lat": 55.8004116, "lon": 37.7939684, "name": "Rusproyekt Ekspo", "newtype": "Outdoor spaces", "type": "point_of_interest" }, "geometry": { "type": "Point", "coordinates": [ 37.7939684, 55.8004116 ] } },
{ "type": "Feature", "properties": { "id": "ChIJJQDFGc80tUYR9cbe6tFfQDA", "lat": 55.8004116, "lon": 37.7939684, "name": "Tekhnotorg 1 000", "newtype": "Car services", "type": "car_repair" }, "geometry": { "type": "Point", "coordinates": [ 37.7939684, 55.8004116 ] } },
{ "type": "Feature", "properties": { "id": "ChIJJQDFGc80tUYRlwzSnOHS_w8", "lat": 55.8004116, "lon": 37.7939684, "name": "Tsentr Issledovaniy Investitsionnogo Rynka Pri Minekonomike GU", "newtype": "Outdoor spaces", "type": "point_of_interest" }, "geometry": { "type": "Point", "coordinates": [ 37.7939684, 55.8004116 ] } },
{ "type": "Feature", "properties": { "id": "ChIJVTY1EM80tUYRxbS9MdUTDIQ", "lat": 55.8002565, "lon": 37.7933049, "name": "ZhENSKAYa KONSULTATsIYa, Rodilnyy dom № 20, Vostochnyy administrativnyy okrug", "newtype": "Health & beauty", "type": "hospital" }, "geometry": { "type": "Point", "coordinates": [ 37.79330490000001, 55.800256499999989 ] } },
{ "type": "Feature", "properties": { "id": "ChIJyUkzDc80tUYR5FVDI--RayU", "lat": 55.800384, "lon": 37.7928284, "name": "Stroitelstvo I Biznes, Redaktsiya Gazety", "newtype": "Outdoor spaces", "type": "point_of_interest" }, "geometry": { "type": "Point", "coordinates": [ 37.7928284, 55.800384 ] } },
{ "type": "Feature", "properties": { "id": "ChIJyUkzDc80tUYRhH0nqYIA1Fw", "lat": 55.800391, "lon": 37.792319, "name": "Teorii I Istorii Arkhitektury I Gradostroitelstva Rossiyskoy Akademii Arkhitektury I Straitelnykh Nauk Niitag RAASN", "newtype": "Outdoor spaces", "type": "point_of_interest" }, "geometry": { "type": "Point", "coordinates": [ 37.792319, 55.800391 ] } },
{ "type": "Feature", "properties": { "id": "ChIJm7XLcs80tUYRF9sjUyDhNso", "lat": 55.800412, "lon": 37.7923121, "name": "Эколайн", "newtype": "Outdoor spaces", "type": "point_of_interest" }, "geometry": { "type": "Point", "coordinates": [ 37.7923121, 55.800412 ] } },
{ "type": "Feature", "properties": { "id": "ChIJK0SEeM80tUYRkzzan2F8yUQ", "lat": 55.800461, "lon": 37.79033, "name": "Izmaylovo-Avto, tekhtsentr", "newtype": "Car services", "type": "car_repair" }, "geometry": { "type": "Point", "coordinates": [ 37.79033, 55.800461 ] } },
{ "type": "Feature", "properties": { "id": "ChIJI5kwh880tUYRo0o4E9HM_EY", "lat": 55.8002174, "lon": 37.789985, "name": "Detskiy Sad №1155, GOU", "newtype": "Education", "type": "school" }, "geometry": { "type": "Point", "coordinates": [ 37.789985, 55.8002174 ] } },
{ "type": "Feature", "properties": { "id": "ChIJSZ_hd880tUYRXUNBDpJzhmE", "lat": 55.800303, "lon": 37.790705, "name": "кузовного ремонта", "newtype": "Outdoor spaces", "type": "point_of_interest" }, "geometry": { "type": "Point", "coordinates": [ 37.790705, 55.800303 ] } },
{ "type": "Feature", "properties": { "id": "ChIJg55VhcU0tUYR0ROHgqF8-7E", "lat": 55.8017925, "lon": 37.7887733, "name": "DETSKIY SAD № 988 , kombinirovannogo vida, GOU", "newtype": "Education", "type": "school" }, "geometry": { "type": "Point", "coordinates": [ 37.7887733, 55.801792499999969 ] } },
{ "type": "Feature", "properties": { "id": "ChIJF84Yl8s0tUYR5zyR3ifUnkU", "lat": 55.7996167, "lon": 37.8053218, "name": "11-ya Parkovaya ulitsa", "newtype": "Transportation & logistics", "type": "route" }, "geometry": { "type": "Point", "coordinates": [ 37.8053218, 55.7996167 ] } },
{ "type": "Feature", "properties": { "id": "ChIJ3xxUni3LSkER7xugS5unklY", "lat": 55.7995149, "lon": 37.8047998, "name": "Meditsinskoy Akademii im. I.M. Sechenova (MMA) № 3", "newtype": "Outdoor spaces", "type": "point_of_interest" }, "geometry": { "type": "Point", "coordinates": [ 37.8047998, 55.7995149 ] } },
{ "type": "Feature", "properties": { "id": "ChIJXbujksk0tUYR3_pPgEpOc7M", "lat": 55.7995149, "lon": 37.8047998, "name": "Kulturnyy Obozrevatel'", "newtype": "Outdoor spaces", "type": "point_of_interest" }, "geometry": { "type": "Point", "coordinates": [ 37.8047998, 55.7995149 ] } },
{ "type": "Feature", "properties": { "id": "ChIJUxqjsMs0tUYR_uXLLZ5x46U", "lat": 55.7995149, "lon": 37.8047998, "name": "Pulmonologii NII FMBA Rossii FGU", "newtype": "Outdoor spaces", "type": "point_of_interest" }, "geometry": { "type": "Point", "coordinates": [ 37.8047998, 55.7995149 ] } },
{ "type": "Feature", "properties": { "id": "ChIJoccpnDLLSkERJnhm1k7HyGM", "lat": 55.7995149, "lon": 37.8047998, "name": "Klarikon, Yuridicheskoye Agentstvo, OOO", "newtype": "Outdoor spaces", "type": "point_of_interest" }, "geometry": { "type": "Point", "coordinates": [ 37.8047998, 55.7995149 ] } },
{ "type": "Feature", "properties": { "id": "ChIJ-UltdMs0tUYRu7DjE--Mov0", "lat": 55.7995149, "lon": 37.8047998, "name": "Pulmonologiya Zhurnal", "newtype": "Retail", "type": "store" }, "geometry": { "type": "Point", "coordinates": [ 37.8047998, 55.7995149 ] } },
{ "type": "Feature", "properties": { "id": "ChIJRX-OLM00tUYRcEtDVqEBZcU", "lat": 55.7995149, "lon": 37.8047998, "name": "Vostochnogo AO № 67 Yunosheskaya TsBS № 2 Izmaylovo", "newtype": "Education", "type": "library" }, "geometry": { "type": "Point", "coordinates": [ 37.8047998, 55.7995149 ] } },
{ "type": "Feature", "properties": { "id": "ChIJq5P6JrY0tUYR_YOQJCpCCSg", "lat": 55.7995149, "lon": 37.8047998, "name": "Miloran, Tf, OOO", "newtype": "Outdoor spaces", "type": "point_of_interest" }, "geometry": { "type": "Point", "coordinates": [ 37.8047998, 55.7995149 ] } },
{ "type": "Feature", "properties": { "id": "ChIJJzYCkTLLSkER2AzhUPWUnug", "lat": 55.7995149, "lon": 37.8047998, "name": "ZARYa, salon krasoty, OOO", "newtype": "Health & beauty", "type": "beauty_salon" }, "geometry": { "type": "Point", "coordinates": [ 37.8047998, 55.7995149 ] } },
{ "type": "Feature", "properties": { "id": "ChIJHYM3J7Y0tUYRTUqPEPbbaUU", "lat": 55.7995149, "lon": 37.8047998, "name": "Traysistems", "newtype": "Outdoor spaces", "type": "point_of_interest" }, "geometry": { "type": "Point", "coordinates": [ 37.8047998, 55.7995149 ] } },
{ "type": "Feature", "properties": { "id": "ChIJ0QbAFaDKSkERoLhi_xs7AnE", "lat": 55.800067, "lon": 37.804808, "name": "Студия Маникюра Людмила", "newtype": "Health & beauty", "type": "beauty_salon" }, "geometry": { "type": "Point", "coordinates": [ 37.804808, 55.800067 ] } },
{ "type": "Feature", "properties": { "id": "ChIJ5U8XDrc0tUYRHd8VKhmYQHM", "lat": 55.7995149, "lon": 37.8047998, "name": "Promyshlennyy Kazakhstan Zhurnal", "newtype": "Outdoor spaces", "type": "point_of_interest" }, "geometry": { "type": "Point", "coordinates": [ 37.8047998, 55.7995149 ] } },
{ "type": "Feature", "properties": { "id": "ChIJoccpnDLLSkER9Ubn4iYLfSk", "lat": 55.7995149, "lon": 37.8047998, "name": "Mamino Schastye Set' Magazinov", "newtype": "Retail", "type": "clothing_store" }, "geometry": { "type": "Point", "coordinates": [ 37.8047998, 55.7995149 ] } },
{ "type": "Feature", "properties": { "id": "ChIJ-weVkss0tUYR2zBseRTdYx8", "lat": 55.799545, "lon": 37.804645, "name": "TsENTURION-97, Obuvnaya Masterskaya, OOO", "newtype": "Everyday services", "type": "laundry" }, "geometry": { "type": "Point", "coordinates": [ 37.804645, 55.799545 ] } },
{ "type": "Feature", "properties": { "id": "ChIJmXZcf8w0tUYRFxC5Di1mzko", "lat": 55.7984649, "lon": 37.8048783, "name": "Alvikom, OOO", "newtype": "Outdoor spaces", "type": "point_of_interest" }, "geometry": { "type": "Point", "coordinates": [ 37.804878299999984, 55.7984649 ] } },
{ "type": "Feature", "properties": { "id": "ChIJ84eVjcw0tUYRQkd0M_IvCwU", "lat": 55.797206, "lon": 37.804733, "name": "11-ya Parkovaya ulitsa", "newtype": "Transportation & logistics", "type": "bus_station" }, "geometry": { "type": "Point", "coordinates": [ 37.804733, 55.797206 ] } },
{ "type": "Feature", "properties": { "id": "ChIJUfGTi8w0tUYRtV1GCO9x0fk", "lat": 55.797332, "lon": 37.804342, "name": "Ооо Втортэкс Универсам", "newtype": "Retail", "type": "grocery_or_supermarket" }, "geometry": { "type": "Point", "coordinates": [ 37.804342, 55.797332 ] } },
{ "type": "Feature", "properties": { "id": "ChIJD1jLas40tUYR1MWIHDzS-jA", "lat": 55.7995408, "lon": 37.8041574, "name": "Sberbank", "newtype": "Finance & banking", "type": "bank" }, "geometry": { "type": "Point", "coordinates": [ 37.8041574, 55.799540799999981 ] } },
{ "type": "Feature", "properties": { "id": "ChIJv2-_jcs0tUYRwQusGVUgE9o", "lat": 55.7995955, "lon": 37.8041885, "name": "Чудо-Школа Умница", "newtype": "Outdoor spaces", "type": "point_of_interest" }, "geometry": { "type": "Point", "coordinates": [ 37.8041885, 55.799595499999974 ] } },
{ "type": "Feature", "properties": { "id": "Ek3QktC10YDRhdC90Y_RjyDQn9C10YDQstC-0LzQsNC50YHQutCw0Y8g0YPQuy4sIDQ2LCDQnNC-0YHQutCy0LAsINCg0L7RgdGB0LjRjw", "lat": 55.7993768, "lon": 37.8045225, "name": "Verkhnyaya Pervomayskaya ul., 46", "newtype": "Outdoor spaces", "type": "street_address" }, "geometry": { "type": "Point", "coordinates": [ 37.8045225, 55.7993768 ] } },
{ "type": "Feature", "properties": { "id": "ChIJ-weVkss0tUYRynOH94IHIFE", "lat": 55.7995096, "lon": 37.8042209, "name": "Inzh-servis OOO", "newtype": "Outdoor spaces", "type": "point_of_interest" }, "geometry": { "type": "Point", "coordinates": [ 37.804220899999983, 55.799509599999986 ] } },
{ "type": "Feature", "properties": { "id": "ChIJQXm0jMs0tUYRusswxYUw2kM", "lat": 55.7993674, "lon": 37.8036592, "name": "MoneyGram (SBERBANK)", "newtype": "Finance & banking", "type": "finance" }, "geometry": { "type": "Point", "coordinates": [ 37.8036592, 55.7993674 ] } },
{ "type": "Feature", "properties": { "id": "ChIJQXm0jMs0tUYRJNICT7th-b4", "lat": 55.7993674, "lon": 37.8036592, "name": "ТОМТ", "newtype": "Outdoor spaces", "type": "point_of_interest" }, "geometry": { "type": "Point", "coordinates": [ 37.8036592, 55.7993674 ] } },
{ "type": "Feature", "properties": { "id": "ChIJQXm0jMs0tUYRDiWr_WcN_RU", "lat": 55.7993674, "lon": 37.8036592, "name": "МЕДИК-СЕРВИС, сервисный центр", "newtype": "Outdoor spaces", "type": "point_of_interest" }, "geometry": { "type": "Point", "coordinates": [ 37.8036592, 55.7993674 ] } },
{ "type": "Feature", "properties": { "id": "ChIJEdgz9ss0tUYRXbDMLwGqU9o", "lat": 55.7993448, "lon": 37.8025202, "name": "Verkhnyaya Pervomayskaya ulitsa", "newtype": "Transportation & logistics", "type": "route" }, "geometry": { "type": "Point", "coordinates": [ 37.8025202, 55.7993448 ] } },
{ "type": "Feature", "properties": { "id": "ChIJF_oe-8s0tUYRjCo0AAsKfdg", "lat": 55.799817, "lon": 37.802043, "name": "Maternity Hospital №20", "newtype": "Health & beauty", "type": "health" }, "geometry": { "type": "Point", "coordinates": [ 37.802043, 55.799817 ] } },
{ "type": "Feature", "properties": { "id": "ChIJXcmhcMw0tUYR8w241jOKayA", "lat": 55.798396, "lon": 37.803608, "name": "Чудо-Школа Умница", "newtype": "Education", "type": "school" }, "geometry": { "type": "Point", "coordinates": [ 37.803608, 55.798396 ] } },
{ "type": "Feature", "properties": { "id": "ChIJ5XFBccw0tUYRL6hg0ljcWeE", "lat": 55.798543, "lon": 37.80323, "name": "Avtomoyka, IP Arkhangelskaya A.A.", "newtype": "Car services", "type": "car_wash" }, "geometry": { "type": "Point", "coordinates": [ 37.80323, 55.798543 ] } },
{ "type": "Feature", "properties": { "id": "ChIJ5XFBccw0tUYRIaROTP490DI", "lat": 55.798543, "lon": 37.80323, "name": "Galo Plyus V Izmaylovo", "newtype": "Health & beauty", "type": "health" }, "geometry": { "type": "Point", "coordinates": [ 37.80323, 55.798543 ] } },
{ "type": "Feature", "properties": { "id": "ChIJ5XFBccw0tUYR9YPRU9EtPwQ", "lat": 55.798543, "lon": 37.80323, "name": "Intellektualnye Robot Sistemy", "newtype": "Outdoor spaces", "type": "point_of_interest" }, "geometry": { "type": "Point", "coordinates": [ 37.80323, 55.798543 ] } },
{ "type": "Feature", "properties": { "id": "ChIJ5XFBccw0tUYRsycLbq8lX58", "lat": 55.798543, "lon": 37.80323, "name": "Umnitsa, tsentr rannego razvitiya detey", "newtype": "Outdoor spaces", "type": "point_of_interest" }, "geometry": { "type": "Point", "coordinates": [ 37.80323, 55.798543 ] } },
{ "type": "Feature", "properties": { "id": "ChIJ1bYVDMw0tUYREUsGsNK7tak", "lat": 55.7989047, "lon": 37.8022123, "name": "10-ya Parkovaya ulitsa", "newtype": "Transportation & logistics", "type": "route" }, "geometry": { "type": "Point", "coordinates": [ 37.8022123, 55.7989047 ] } },
{ "type": "Feature", "properties": { "id": "ChIJv0D6csw0tUYR_sGBdPKYOis", "lat": 55.7985752, "lon": 37.8024501, "name": "GALORE", "newtype": "Retail", "type": "clothing_store" }, "geometry": { "type": "Point", "coordinates": [ 37.8024501, 55.798575199999988 ] } },
{ "type": "Feature", "properties": { "id": "ChIJRQguc8w0tUYRB1M-v5LIu7k", "lat": 55.7987067, "lon": 37.8024459, "name": "Galo Plus, Соляная пещера", "newtype": "Health & beauty", "type": "hospital" }, "geometry": { "type": "Point", "coordinates": [ 37.8024459, 55.7987067 ] } },
{ "type": "Feature", "properties": { "id": "ChIJ5XFBccw0tUYRRaM00lQPPtM", "lat": 55.7986742, "lon": 37.8026426, "name": "Public Services Center of the Izmaylovo District", "newtype": "Outdoor spaces", "type": "point_of_interest" }, "geometry": { "type": "Point", "coordinates": [ 37.8026426, 55.7986742 ] } },
{ "type": "Feature", "properties": { "id": "ChIJwyS7NgnS3UMRzB1M9QY1N3s", "lat": 55.7986729, "lon": 37.8025752, "name": "FMS of the Izmaylovo District", "newtype": "Administrative", "type": "local_government_office" }, "geometry": { "type": "Point", "coordinates": [ 37.802575200000014, 55.798672899999971 ] } },
{ "type": "Feature", "properties": { "id": "ChIJ5XFBccw0tUYRnshW7JBviec", "lat": 55.798935, "lon": 37.802329, "name": "Avtomoyka.SU (Автомойка на 10-й Парковой)", "newtype": "Car services", "type": "car_wash" }, "geometry": { "type": "Point", "coordinates": [ 37.802329, 55.798935 ] } },
{ "type": "Feature", "properties": { "id": "ChIJlQTCcsw0tUYRTZ0UWiN-wPg", "lat": 55.7985981, "lon": 37.8025442, "name": "Militant Army shop", "newtype": "Retail", "type": "store" }, "geometry": { "type": "Point", "coordinates": [ 37.802544200000021, 55.798598099999971 ] } },
{ "type": "Feature", "properties": { "id": "ChIJzxvdKXVKtUYRta1IEJYwMEI", "lat": 55.7989124, "lon": 37.8017341, "name": "Tatu salon TTS", "newtype": "Retail", "type": "store" }, "geometry": { "type": "Point", "coordinates": [ 37.8017341, 55.7989124 ] } },
{ "type": "Feature", "properties": { "id": "ChIJ5XFBccw0tUYR9DC82Mc4QLo", "lat": 55.798524, "lon": 37.803148, "name": "Папа, мама, я", "newtype": "Health & beauty", "type": "beauty_salon" }, "geometry": { "type": "Point", "coordinates": [ 37.803148, 55.798524 ] } },
{ "type": "Feature", "properties": { "id": "ElXQktC10YDRhdC90Y_RjyDQn9C10YDQstC-0LzQsNC50YHQutCw0Y8g0YPQuy4sIDU1LCDQnNC-0YHQutCy0LAsINCg0L7RgdGB0LjRjywgMTA1MjY0", "lat": 55.7993207, "lon": 37.801043, "name": "Verkhnyaya Pervomayskaya ul., 55", "newtype": "Outdoor spaces", "type": "street_address" }, "geometry": { "type": "Point", "coordinates": [ 37.801043, 55.7993207 ] } },
{ "type": "Feature", "properties": { "id": "ChIJR0wYqc40tUYRdGPi2lT4Zx8", "lat": 55.7998881, "lon": 37.7996851, "name": "Russian Fireworks", "newtype": "Retail", "type": "store" }, "geometry": { "type": "Point", "coordinates": [ 37.7996851, 55.7998881 ] } },
{ "type": "Feature", "properties": { "id": "ChIJjyYFrs40tUYRj8xOgnbUpvU", "lat": 55.799869, "lon": 37.799662, "name": "Magazin Zreniya OPTIKA to, chto nado", "newtype": "Health & beauty", "type": "health" }, "geometry": { "type": "Point", "coordinates": [ 37.799662, 55.799869 ] } },
{ "type": "Feature", "properties": { "id": "ChIJHVHQuc40tUYRCoLdDqW7quY", "lat": 55.799869, "lon": 37.799662, "name": "STEKLO BLOCK.RU, internet-magazin stekloblokov", "newtype": "Outdoor spaces", "type": "point_of_interest" }, "geometry": { "type": "Point", "coordinates": [ 37.799662, 55.799869 ] } },
{ "type": "Feature", "properties": { "id": "ChIJjyYFrs40tUYRmnadacF-Oc0", "lat": 55.799863, "lon": 37.799488, "name": "Glance +", "newtype": "Retail", "type": "store" }, "geometry": { "type": "Point", "coordinates": [ 37.799488, 55.799863 ] } },
{ "type": "Feature", "properties": { "id": "ChIJjyYFrs40tUYRxwBi19eeuFw", "lat": 55.799863, "lon": 37.799488, "name": "Abagor", "newtype": "Professional services", "type": "real_estate_agency" }, "geometry": { "type": "Point", "coordinates": [ 37.799488, 55.799863 ] } },
{ "type": "Feature", "properties": { "id": "ChIJhSYFrs40tUYRFeXAyrVt3XI", "lat": 55.799869, "lon": 37.7996621, "name": "Мануальная психотерапия", "newtype": "Health & beauty", "type": "health" }, "geometry": { "type": "Point", "coordinates": [ 37.7996621, 55.799869 ] } },
{ "type": "Feature", "properties": { "id": "ChIJjyYFrs40tUYR2mAmI-GTfoQ", "lat": 55.799869, "lon": 37.799662, "name": "Khema Kompaniya", "newtype": "Outdoor spaces", "type": "point_of_interest" }, "geometry": { "type": "Point", "coordinates": [ 37.799662, 55.799869 ] } },
{ "type": "Feature", "properties": { "id": "ChIJjyYFrs40tUYR3hk5ZIWdzXM", "lat": 55.799869, "lon": 37.799662, "name": "ЧП «Рассвет»", "newtype": "Retail", "type": "home_goods_store" }, "geometry": { "type": "Point", "coordinates": [ 37.799662, 55.799869 ] } },
{ "type": "Feature", "properties": { "id": "ChIJX1Nwrs40tUYR81UAI0H46Jo", "lat": 55.799828, "lon": 37.799795, "name": "Срочная Заправка Картриджей", "newtype": "Retail", "type": "store" }, "geometry": { "type": "Point", "coordinates": [ 37.799795, 55.799828 ] } },
{ "type": "Feature", "properties": { "id": "ChIJ123wrs40tUYRuvXtj2y8AXE", "lat": 55.799712, "lon": 37.799814, "name": "Art-Rama, set' bagetnykh masterskikh", "newtype": "Retail", "type": "store" }, "geometry": { "type": "Point", "coordinates": [ 37.799814, 55.799712 ] } },
{ "type": "Feature", "properties": { "id": "ChIJaVEDqc40tUYR1UQFmaVbbvE", "lat": 55.7998415, "lon": 37.7994889, "name": "Beta-rossi", "newtype": "Outdoor spaces", "type": "point_of_interest" }, "geometry": { "type": "Point", "coordinates": [ 37.7994889, 55.7998415 ] } },
{ "type": "Feature", "properties": { "id": "ChIJy5QRrs40tUYRdmaiPgk_BhM", "lat": 55.7998415, "lon": 37.7994889, "name": "Interveyv Kommunikeyshns OOO", "newtype": "Outdoor spaces", "type": "point_of_interest" }, "geometry": { "type": "Point", "coordinates": [ 37.7994889, 55.7998415 ] } },
{ "type": "Feature", "properties": { "id": "ChIJy5QRrs40tUYRM5ajLgkjBZI", "lat": 55.7998415, "lon": 37.7994889, "name": "Elvis", "newtype": "Retail", "type": "furniture_store" }, "geometry": { "type": "Point", "coordinates": [ 37.7994889, 55.7998415 ] } },
{ "type": "Feature", "properties": { "id": "ChIJy5QRrs40tUYRHl5ITB8SyEg", "lat": 55.7998415, "lon": 37.7994889, "name": "Khema OOO", "newtype": "Health & beauty", "type": "health" }, "geometry": { "type": "Point", "coordinates": [ 37.7994889, 55.7998415 ] } },
{ "type": "Feature", "properties": { "id": "ChIJaVEDqc40tUYRIvZLb7T9Ijw", "lat": 55.7998415, "lon": 37.7994889, "name": "Visma-stroy OOO", "newtype": "Outdoor spaces", "type": "point_of_interest" }, "geometry": { "type": "Point", "coordinates": [ 37.7994889, 55.7998415 ] } },
{ "type": "Feature", "properties": { "id": "ChIJy5QRrs40tUYR9w4i-IAfm80", "lat": 55.7998415, "lon": 37.7994889, "name": "Onlinetur", "newtype": "Professional services", "type": "travel_agency" }, "geometry": { "type": "Point", "coordinates": [ 37.7994889, 55.7998415 ] } },
{ "type": "Feature", "properties": { "id": "ChIJyXAXrs40tUYRpoIJNHhzK1A", "lat": 55.7998314, "lon": 37.7994894, "name": "Optika", "newtype": "Retail", "type": "store" }, "geometry": { "type": "Point", "coordinates": [ 37.7994894, 55.7998314 ] } },
{ "type": "Feature", "properties": { "id": "ChIJyXAXrs40tUYR4vulpIS55uw", "lat": 55.7998314, "lon": 37.7994894, "name": "Formula Ofisa", "newtype": "Retail", "type": "store" }, "geometry": { "type": "Point", "coordinates": [ 37.7994894, 55.7998314 ] } },
{ "type": "Feature", "properties": { "id": "ChIJy5QRrs40tUYRhIpHrNpsblI", "lat": 55.7998314, "lon": 37.7994894, "name": "Vipstayl Kompani", "newtype": "Outdoor spaces", "type": "point_of_interest" }, "geometry": { "type": "Point", "coordinates": [ 37.7994894, 55.7998314 ] } },
{ "type": "Feature", "properties": { "id": "ChIJy5QRrs40tUYRr5QUzRZXjwM", "lat": 55.7998415, "lon": 37.7994889, "name": "Stankoprom ZAO", "newtype": "Professional services", "type": "real_estate_agency" }, "geometry": { "type": "Point", "coordinates": [ 37.7994889, 55.7998415 ] } },
{ "type": "Feature", "properties": { "id": "ChIJyXAXrs40tUYRnIeADmFapPM", "lat": 55.7998314, "lon": 37.7994894, "name": "Stroypolimet", "newtype": "Outdoor spaces", "type": "point_of_interest" }, "geometry": { "type": "Point", "coordinates": [ 37.7994894, 55.7998314 ] } },
{ "type": "Feature", "properties": { "id": "ChIJyXAXrs40tUYR77fhIZhvcNs", "lat": 55.7998314, "lon": 37.7994894, "name": "Multi Tur", "newtype": "Professional services", "type": "travel_agency" }, "geometry": { "type": "Point", "coordinates": [ 37.7994894, 55.7998314 ] } },
{ "type": "Feature", "properties": { "id": "ChIJyXAXrs40tUYRelS-7Q5T4Xw", "lat": 55.7998314, "lon": 37.7994894, "name": "Grod-stroy", "newtype": "Outdoor spaces", "type": "point_of_interest" }, "geometry": { "type": "Point", "coordinates": [ 37.7994894, 55.7998314 ] } },
{ "type": "Feature", "properties": { "id": "ChIJaVEDqc40tUYRFAyEkNArd0k", "lat": 55.7998314, "lon": 37.7994894, "name": "Novaya Rodina", "newtype": "Retail", "type": "store" }, "geometry": { "type": "Point", "coordinates": [ 37.7994894, 55.7998314 ] } },
{ "type": "Feature", "properties": { "id": "ChIJyXAXrs40tUYRJSZEDo4rbAc", "lat": 55.7998314, "lon": 37.7994894, "name": "Reglon", "newtype": "Retail", "type": "home_goods_store" }, "geometry": { "type": "Point", "coordinates": [ 37.7994894, 55.7998314 ] } },
{ "type": "Feature", "properties": { "id": "ChIJfdPMr840tUYRPBu9ra4SI3M", "lat": 55.799759, "lon": 37.79953, "name": "Ооо Новый Формат", "newtype": "Outdoor spaces", "type": "point_of_interest" }, "geometry": { "type": "Point", "coordinates": [ 37.79953, 55.799759 ] } },
{ "type": "Feature", "properties": { "id": "ChIJr-_luc40tUYR8HXG-xQlJgw", "lat": 55.7998103, "lon": 37.7994903, "name": "Stekloblock.Ru", "newtype": "Retail", "type": "store" }, "geometry": { "type": "Point", "coordinates": [ 37.7994903, 55.7998103 ] } },
{ "type": "Feature", "properties": { "id": "ElXQktC10YDRhdC90Y_RjyDQn9C10YDQstC-0LzQsNC50YHQutCw0Y8g0YPQuy4sIDUzLCDQnNC-0YHQutCy0LAsINCg0L7RgdGB0LjRjywgMTA1MjY0", "lat": 55.7993191, "lon": 37.8004241, "name": "Verkhnyaya Pervomayskaya ul., 53", "newtype": "Outdoor spaces", "type": "street_address" }, "geometry": { "type": "Point", "coordinates": [ 37.8004241, 55.799319099999984 ] } },
{ "type": "Feature", "properties": { "id": "ChIJaVEDqc40tUYRRkoEwhMOSTk", "lat": 55.7995255, "lon": 37.8001423, "name": "Institut Gumanitarnogo Obrazovaniya, Fakultet Informatsionnykh tekhnologiy", "newtype": "Education", "type": "school" }, "geometry": { "type": "Point", "coordinates": [ 37.800142299999976, 55.799525499999987 ] } },
{ "type": "Feature", "properties": { "id": "ChIJR0wYqc40tUYRghBrcuBq5RQ", "lat": 55.799581, "lon": 37.800143, "name": "Gumanitarnogo Obrazovaniya Institut (IGUMO)", "newtype": "Education", "type": "school" }, "geometry": { "type": "Point", "coordinates": [ 37.800143, 55.799581 ] } },
{ "type": "Feature", "properties": { "id": "ChIJR0wYqc40tUYRbDvCV-p9BH8", "lat": 55.799581, "lon": 37.800143, "name": "Институт гуманитарного образования и информационных технологий", "newtype": "Outdoor spaces", "type": "point_of_interest" }, "geometry": { "type": "Point", "coordinates": [ 37.800143, 55.799581 ] } },
{ "type": "Feature", "properties": { "id": "ChIJ5-t9ps40tUYRCcun_Ux-BTI", "lat": 55.7993126, "lon": 37.799649, "name": "Verkhnyaya Pervomayskaya ulitsa", "newtype": "Transportation & logistics", "type": "route" }, "geometry": { "type": "Point", "coordinates": [ 37.799649, 55.7993126 ] } },
{ "type": "Feature", "properties": { "id": "ChIJZ-K4r840tUYRQOQ2obi-ARU", "lat": 55.799695, "lon": 37.799521, "name": "Avtoarsenal", "newtype": "Retail", "type": "store" }, "geometry": { "type": "Point", "coordinates": [ 37.799521, 55.799695 ] } },
{ "type": "Feature", "properties": { "id": "ChIJL-p1pc40tUYR-_KKbTJQlu8", "lat": 55.7995126, "lon": 37.7994222, "name": "Бизнес Эдвайз", "newtype": "Everyday services", "type": "general_contractor" }, "geometry": { "type": "Point", "coordinates": [ 37.799422199999988, 55.7995126 ] } },
{ "type": "Feature", "properties": { "id": "ChIJpYd1pc40tUYRU_4VA0up7Ho", "lat": 55.7995128, "lon": 37.7993441, "name": "Divnye Okna", "newtype": "Outdoor spaces", "type": "point_of_interest" }, "geometry": { "type": "Point", "coordinates": [ 37.799344099999985, 55.7995128 ] } },
{ "type": "Feature", "properties": { "id": "ChIJpYd1pc40tUYR7w1LFtIeBu0", "lat": 55.7995128, "lon": 37.7993441, "name": "Avtoarsenal, magazin avtozapchastey", "newtype": "Retail", "type": "store" }, "geometry": { "type": "Point", "coordinates": [ 37.799344099999985, 55.7995128 ] } },
{ "type": "Feature", "properties": { "id": "ChIJpYd1pc40tUYRPLFvWK75qI8", "lat": 55.7995128, "lon": 37.7993441, "name": "Statim", "newtype": "Retail", "type": "pharmacy" }, "geometry": { "type": "Point", "coordinates": [ 37.799344099999985, 55.7995128 ] } },
{ "type": "Feature", "properties": { "id": "ChIJpYd1pc40tUYRjRl5HXZP2jc", "lat": 55.7995128, "lon": 37.7993441, "name": "Tsvetochnyy magazin, IP Moskvicheva S. Yu.", "newtype": "Professional services", "type": "florist" }, "geometry": { "type": "Point", "coordinates": [ 37.799344099999985, 55.7995128 ] } },
{ "type": "Feature", "properties": { "id": "ChIJdbQApc40tUYRBbXt15kLcYo", "lat": 55.79946, "lon": 37.799298, "name": "Ооо Тамга Фейерверки", "newtype": "Retail", "type": "store" }, "geometry": { "type": "Point", "coordinates": [ 37.799298, 55.79946 ] } },
{ "type": "Feature", "properties": { "id": "ChIJh1CyD8w0tUYR116hz6rltJM", "lat": 55.798933, "lon": 37.801654, "name": "Lacute Tattoo", "newtype": "Retail", "type": "store" }, "geometry": { "type": "Point", "coordinates": [ 37.801654, 55.798933 ] } },
{ "type": "Feature", "properties": { "id": "ChIJg5E-Hsw0tUYR3e9dIdX0r6c", "lat": 55.7989357, "lon": 37.7996996, "name": "Stomatologicheskiy kabinet, IP Sokolina L. B.", "newtype": "Health & beauty", "type": "dentist" }, "geometry": { "type": "Point", "coordinates": [ 37.7996996, 55.798935700000015 ] } },
{ "type": "Feature", "properties": { "id": "ChIJhUkJD8w0tUYRN4RfxLubHiI", "lat": 55.7990107, "lon": 37.8016725, "name": "Каллиграф", "newtype": "Outdoor spaces", "type": "point_of_interest" }, "geometry": { "type": "Point", "coordinates": [ 37.8016725, 55.7990107 ] } },
{ "type": "Feature", "properties": { "id": "ChIJDYhyP8w0tUYRORYJVEnff4E", "lat": 55.798071, "lon": 37.80118, "name": "FSB RF Poliklinika № 5", "newtype": "Health & beauty", "type": "health" }, "geometry": { "type": "Point", "coordinates": [ 37.80118, 55.798071 ] } },
{ "type": "Feature", "properties": { "id": "ChIJNbstXMw0tUYRpS5wmkAM8Sw", "lat": 55.7974666, "lon": 37.8038102, "name": "Megapolis, Avtotekhtsentr", "newtype": "Car services", "type": "car_wash" }, "geometry": { "type": "Point", "coordinates": [ 37.8038102, 55.7974666 ] } },
{ "type": "Feature", "properties": { "id": "ChIJqe7qZMw0tUYR5PTfClgUSN4", "lat": 55.797996, "lon": 37.803553, "name": "DETSKIY SAD №793, logopedicheskiy, kruglosutochnyy, GOU", "newtype": "Education", "type": "school" }, "geometry": { "type": "Point", "coordinates": [ 37.803553, 55.797996 ] } },
{ "type": "Feature", "properties": { "id": "ChIJ9eotacw0tUYRp2OWsmMwlII", "lat": 55.7980969, "lon": 37.8025952, "name": "Sotsialnye Kurorty", "newtype": "Professional services", "type": "travel_agency" }, "geometry": { "type": "Point", "coordinates": [ 37.802595199999985, 55.7980969 ] } },
{ "type": "Feature", "properties": { "id": "ChIJJQNSNAnS3UMRSfJu4Rwb0Iw", "lat": 55.7980169, "lon": 37.8025926, "name": "Сетевые решения", "newtype": "Outdoor spaces", "type": "point_of_interest" }, "geometry": { "type": "Point", "coordinates": [ 37.8025926, 55.798016900000015 ] } },
{ "type": "Feature", "properties": { "id": "ChIJvRIwacw0tUYRcgWc7Lxubh8", "lat": 55.7980878, "lon": 37.8025792, "name": "Neftegazstroykurort", "newtype": "Professional services", "type": "travel_agency" }, "geometry": { "type": "Point", "coordinates": [ 37.8025792, 55.798087800000012 ] } },
{ "type": "Feature", "properties": { "id": "EkcxMC3RjyDQn9Cw0YDQutC-0LLQsNGPINGD0LsuLCAxOC0yMCwg0JzQvtGB0LrQstCwLCDQoNC-0YHRgdC40Y8sIDEwNTI2NA", "lat": 55.7981053, "lon": 37.8022495, "name": "10-ya Parkovaya ul., 18-20", "newtype": "Outdoor spaces", "type": "street_address" }, "geometry": { "type": "Point", "coordinates": [ 37.802249499999988, 55.798105299999989 ] } },
{ "type": "Feature", "properties": { "id": "ChIJ9eotacw0tUYRcSygPer6LgY", "lat": 55.798058, "lon": 37.802533, "name": "Адвокатское бюро Оглоблин и партнеры", "newtype": "Professional services", "type": "lawyer" }, "geometry": { "type": "Point", "coordinates": [ 37.802533, 55.798058 ] } },
{ "type": "Feature", "properties": { "id": "ChIJD1oKypaHtkYRSToh-mhE7qc", "lat": 55.798058, "lon": 37.802533, "name": "Sibirskoye zdorovye, OOO, nauchno-proizvodstvennaya korporatsiya", "newtype": "Outdoor spaces", "type": "point_of_interest" }, "geometry": { "type": "Point", "coordinates": [ 37.802533, 55.798058 ] } },
{ "type": "Feature", "properties": { "id": "ChIJzRkzacw0tUYRLKk6Du_vwj0", "lat": 55.798058, "lon": 37.802533, "name": "МДМ Плюс Бм", "newtype": "Outdoor spaces", "type": "point_of_interest" }, "geometry": { "type": "Point", "coordinates": [ 37.802533, 55.798058 ] } },
{ "type": "Feature", "properties": { "id": "ChIJzRkzacw0tUYRrDDPAUGecRg", "lat": 55.798058, "lon": 37.802533, "name": "ООО Отель Поиск", "newtype": "Professional services", "type": "travel_agency" }, "geometry": { "type": "Point", "coordinates": [ 37.802533, 55.798058 ] } },
{ "type": "Feature", "properties": { "id": "ChIJvRIwacw0tUYRuN9bTvFdGRY", "lat": 55.798058, "lon": 37.802533, "name": "Mezhdunarodnyy tsentr okkultizma i magii", "newtype": "Education", "type": "school" }, "geometry": { "type": "Point", "coordinates": [ 37.802533, 55.798058 ] } },
{ "type": "Feature", "properties": { "id": "ChIJzRkzacw0tUYRjykkDjyrnbs", "lat": 55.798058, "lon": 37.8025329, "name": "PONS, torgovaya kompaniya, ofitsialnyy predstavitel'", "newtype": "Retail", "type": "store" }, "geometry": { "type": "Point", "coordinates": [ 37.8025329, 55.798058 ] } },
{ "type": "Feature", "properties": { "id": "ChIJzRkzacw0tUYRDzVHGMCnG7s", "lat": 55.798058, "lon": 37.8025329, "name": "РАДАСВЕТ", "newtype": "Outdoor spaces", "type": "point_of_interest" }, "geometry": { "type": "Point", "coordinates": [ 37.8025329, 55.798058 ] } },
{ "type": "Feature", "properties": { "id": "ChIJzRkzacw0tUYRECGe7TQOhJw", "lat": 55.798058, "lon": 37.8025329, "name": "Мертен", "newtype": "Retail", "type": "store" }, "geometry": { "type": "Point", "coordinates": [ 37.8025329, 55.798058 ] } },
{ "type": "Feature", "properties": { "id": "ChIJzRkzacw0tUYRBh0D9zuygos", "lat": 55.798058, "lon": 37.8025329, "name": "Фонтини", "newtype": "Outdoor spaces", "type": "point_of_interest" }, "geometry": { "type": "Point", "coordinates": [ 37.8025329, 55.798058 ] } },
{ "type": "Feature", "properties": { "id": "ChIJzRkzacw0tUYR0Eins_PhtGs", "lat": 55.798058, "lon": 37.8025329, "name": "Фвжб", "newtype": "Outdoor spaces", "type": "point_of_interest" }, "geometry": { "type": "Point", "coordinates": [ 37.8025329, 55.798058 ] } },
{ "type": "Feature", "properties": { "id": "ChIJzRkzacw0tUYRQQPhHL5NOx0", "lat": 55.798058, "lon": 37.8025329, "name": "Aspira, shou-rum", "newtype": "Outdoor spaces", "type": "point_of_interest" }, "geometry": { "type": "Point", "coordinates": [ 37.8025329, 55.798058 ] } },
{ "type": "Feature", "properties": { "id": "ChIJzRkzacw0tUYRsthIrC1JXRo", "lat": 55.798058, "lon": 37.8025329, "name": "ХАБЕРЛАН ГРУПП", "newtype": "Retail", "type": "hardware_store" }, "geometry": { "type": "Point", "coordinates": [ 37.8025329, 55.798058 ] } },
{ "type": "Feature", "properties": { "id": "ChIJzRkzacw0tUYROIEdabsGF-Q", "lat": 55.798058, "lon": 37.8025329, "name": "Evrotok Torgovaya Kompaniya", "newtype": "Outdoor spaces", "type": "point_of_interest" }, "geometry": { "type": "Point", "coordinates": [ 37.8025329, 55.798058 ] } },
{ "type": "Feature", "properties": { "id": "ChIJzRkzacw0tUYRkvtTryf_YYk", "lat": 55.798058, "lon": 37.8025329, "name": "SADAR-IT, servisnaya kompaniya", "newtype": "Outdoor spaces", "type": "point_of_interest" }, "geometry": { "type": "Point", "coordinates": [ 37.8025329, 55.798058 ] } },
{ "type": "Feature", "properties": { "id": "ChIJzRkzacw0tUYRdgesye2v5Vo", "lat": 55.798058, "lon": 37.8025329, "name": "Водоотводные системы", "newtype": "Retail", "type": "store" }, "geometry": { "type": "Point", "coordinates": [ 37.8025329, 55.798058 ] } },
{ "type": "Feature", "properties": { "id": "ChIJzRkzacw0tUYRi_rYaV4IDtM", "lat": 55.798058, "lon": 37.8025329, "name": "СВАРОГ", "newtype": "Outdoor spaces", "type": "point_of_interest" }, "geometry": { "type": "Point", "coordinates": [ 37.8025329, 55.798058 ] } },
{ "type": "Feature", "properties": { "id": "ChIJzRkzacw0tUYRbfu28jGmI8o", "lat": 55.798058, "lon": 37.8025329, "name": "ТЕПЛО ПРОЕКТ", "newtype": "Outdoor spaces", "type": "point_of_interest" }, "geometry": { "type": "Point", "coordinates": [ 37.8025329, 55.798058 ] } },
{ "type": "Feature", "properties": { "id": "ChIJ9eotacw0tUYR9BpOV2vxgjA", "lat": 55.7980552, "lon": 37.8023953, "name": "ООО АТ \"Продвинутые Технологии\"", "newtype": "Retail", "type": "store" }, "geometry": { "type": "Point", "coordinates": [ 37.802395300000015, 55.7980552 ] } },
{ "type": "Feature", "properties": { "id": "ChIJzRkzacw0tUYRdqi5fsf-B9I", "lat": 55.798055, "lon": 37.802395, "name": "Vash Solnechnyy Dom torgovaya kompaniya", "newtype": "Outdoor spaces", "type": "point_of_interest" }, "geometry": { "type": "Point", "coordinates": [ 37.802395, 55.798055 ] } },
{ "type": "Feature", "properties": { "id": "ChIJZ_iIsNU0tUYReIVy8NLCI9Q", "lat": 55.7980552, "lon": 37.8023953, "name": "Korporatsiya \"Sibirskoye Zdorovye\"", "newtype": "Retail", "type": "store" }, "geometry": { "type": "Point", "coordinates": [ 37.802395300000015, 55.7980552 ] } },
{ "type": "Feature", "properties": { "id": "ChIJzRkzacw0tUYRx8brwbPJbDo", "lat": 55.7980552, "lon": 37.8023953, "name": "Markiza Angelov Atelye", "newtype": "Retail", "type": "store" }, "geometry": { "type": "Point", "coordinates": [ 37.802395300000015, 55.7980552 ] } },
{ "type": "Feature", "properties": { "id": "ChIJzRkzacw0tUYRDHcxur2UfRo", "lat": 55.7980552, "lon": 37.8023953, "name": "Pons", "newtype": "Retail", "type": "store" }, "geometry": { "type": "Point", "coordinates": [ 37.802395300000015, 55.7980552 ] } },
{ "type": "Feature", "properties": { "id": "ChIJ9eotacw0tUYRS54srpkB7wk", "lat": 55.7980552, "lon": 37.8023953, "name": "ЗАО \"Гомеотон\"", "newtype": "Health & beauty", "type": "physiotherapist" }, "geometry": { "type": "Point", "coordinates": [ 37.802395300000015, 55.7980552 ] } },
{ "type": "Feature", "properties": { "id": "ChIJDxsyacw0tUYRzBnfw3j8TX0", "lat": 55.7980336, "lon": 37.8025336, "name": "Бтичино-розетки", "newtype": "Outdoor spaces", "type": "point_of_interest" }, "geometry": { "type": "Point", "coordinates": [ 37.8025336, 55.7980336 ] } },
{ "type": "Feature", "properties": { "id": "ChIJ30AWRcw0tUYR4pgS9wpnCtc", "lat": 55.7979905, "lon": 37.8025548, "name": "Notarius Shashlykova M.O", "newtype": "Finance & banking", "type": "finance" }, "geometry": { "type": "Point", "coordinates": [ 37.8025548, 55.797990500000012 ] } },
{ "type": "Feature", "properties": { "id": "ChIJ9eotacw0tUYROFa_4st_G8w", "lat": 55.798037, "lon": 37.8023959, "name": "Vniist-poisk Inzhenernyy Tsentr ZAO", "newtype": "Outdoor spaces", "type": "point_of_interest" }, "geometry": { "type": "Point", "coordinates": [ 37.8023959, 55.798037 ] } },
{ "type": "Feature", "properties": { "id": "ChIJ9eotacw0tUYR5D_bQK0G5jw", "lat": 55.798037, "lon": 37.8023959, "name": "Standart", "newtype": "Outdoor spaces", "type": "point_of_interest" }, "geometry": { "type": "Point", "coordinates": [ 37.8023959, 55.798037 ] } },
{ "type": "Feature", "properties": { "id": "ChIJ9eotacw0tUYRT-YWyoWhYEI", "lat": 55.798037, "lon": 37.8023959, "name": "RADUGA M, proizvodstvennaya kompaniya, OOO", "newtype": "Outdoor spaces", "type": "point_of_interest" },